[{"stopID":"5","name":"LAGOON DR + IOLANA PL","latitude":21.321687,"longitude":-157.907687,"routeShortNames":["1"]},{"stopID":"6","name":"LAGOON DR + KAPALULU PL","latitude":21.319702,"longitude":-157.910531,"routeShortNames":["1"]},{"stopID":"7","name":"LAGOON DR + MOKUEA PL","latitude":21.318565,"longitude":-157.912124,"routeShortNames":["1"]},{"stopID":"8","name":"LAGOON DR + KEEHI PL","latitude":21.316639,"longitude":-157.914877,"routeShortNames":["1"]},{"stopID":"9","name":"LAGOON DR + IAKO PL","latitude":21.313973,"longitude":-157.918638,"routeShortNames":["1"]},{"stopID":"11","name":"PALEKONA ST + LAGOON DR","latitude":21.314342,"longitude":-157.92111,"routeShortNames":["1"]},{"stopID":"12","name":"PAKI AVE + PONI MOI RD","latitude":21.261225,"longitude":-157.818181,"routeShortNames":["1"]},{"stopID":"13","name":"PAKI AVE + DIAMOND HEAD TENNIS CTR","latitude":21.263524,"longitude":-157.818523,"routeShortNames":["1"]},{"stopID":"14","name":"PAKI AVE + NOELA ST","latitude":21.266265,"longitude":-157.816826,"routeShortNames":["1"]},{"stopID":"15","name":"PAKI AVE + PAKI PLAYGROUND","latitude":21.267915,"longitude":-157.816033,"routeShortNames":["1"]},{"stopID":"16","name":"PAKI AVE + MONSARRAT AVE","latitude":21.270149,"longitude":-157.815989,"routeShortNames":["1"]},{"stopID":"17","name":"PAKI AVE + KAPAHULU AVE","latitude":21.272237,"longitude":-157.816457,"routeShortNames":["1"]},{"stopID":"18","name":"KAPAHULU AVE + ALA WAI BL","latitude":21.273013,"longitude":-157.8171,"routeShortNames":["1"]},{"stopID":"19","name":"KAPAHULU AVE + KUHIO AVE","latitude":21.272019,"longitude":-157.819893,"routeShortNames":["1"]},{"stopID":"20","name":"KUHIO AVE + PAOAKALANI AVE","latitude":21.273741,"longitude":-157.82115,"routeShortNames":["1"]},{"stopID":"22","name":"KUHIO AVE + LILIUOKALANI AVE","latitude":21.27579,"longitude":-157.822651,"routeShortNames":["1"]},{"stopID":"23","name":"KUHIO AVE + KAIULANI AVE","latitude":21.276933,"longitude":-157.823715,"routeShortNames":["1"]},{"stopID":"24","name":"KUHIO AVE + WALINA ST","latitude":21.278309,"longitude":-157.82481,"routeShortNames":["1"]},{"stopID":"26","name":"KUHIO AVE + SEASIDE AVE","latitude":21.28041,"longitude":-157.827239,"routeShortNames":["1"]},{"stopID":"27","name":"KUHIO AVE + LEWERS ST","latitude":21.281378,"longitude":-157.828344,"routeShortNames":["1"]},{"stopID":"28","name":"KUHIO AVE + LAUNIU ST","latitude":21.282357,"longitude":-157.829462,"routeShortNames":["1"]},{"stopID":"29","name":"KUHIO AVE + NAMAHANA ST","latitude":21.284154,"longitude":-157.831603,"routeShortNames":["1"]},{"stopID":"30","name":"KALAKAUA AVE + PAU ST","latitude":21.285485,"longitude":-157.832792,"routeShortNames":["1"]},{"stopID":"31","name":"KALAKAUA AVE + MCCULLY ST","latitude":21.287028,"longitude":-157.833662,"routeShortNames":["1"]},{"stopID":"33","name":"KALAKAUA AVE + KAPIOLANI BL","latitude":21.290046,"longitude":-157.83534,"routeShortNames":["1"]},{"stopID":"34","name":"KALAKAUA AVE + KAPIOLANI BL","latitude":21.291288,"longitude":-157.835917,"routeShortNames":["1"]},{"stopID":"35","name":"KALAKAUA AVE + OPP MAKALOA ST","latitude":21.293146,"longitude":-157.836688,"routeShortNames":["1"]},{"stopID":"36","name":"KALAKAUA AVE + PHILIP ST","latitude":21.294931,"longitude":-157.83678,"routeShortNames":["1"]},{"stopID":"37","name":"KALAKAUA AVE + S KING ST","latitude":21.296872,"longitude":-157.836829,"routeShortNames":["1"]},{"stopID":"38","name":"S BERETANIA ST + OPP KALAKAUA AVE","latitude":21.299544,"longitude":-157.837549,"routeShortNames":["1"]},{"stopID":"39","name":"S BERETANIA ST + KEEAUMOKU ST","latitude":21.300116,"longitude":-157.839146,"routeShortNames":["1"]},{"stopID":"40","name":"S BERETANIA ST + PIIKOI ST","latitude":21.300937,"longitude":-157.841382,"routeShortNames":["1"]},{"stopID":"41","name":"S BERETANIA ST + PENSACOLA ST","latitude":21.302221,"longitude":-157.844905,"routeShortNames":["1"]},{"stopID":"43","name":"S BERETANIA ST + WARD AVE","latitude":21.303833,"longitude":-157.849322,"routeShortNames":["1"]},{"stopID":"44","name":"S BERETANIA ST + ALAPAI ST","latitude":21.305022,"longitude":-157.852567,"routeShortNames":["1"]},{"stopID":"45","name":"S BERETANIA ST + PUNCHBOWL ST","latitude":21.307244,"longitude":-157.856142,"routeShortNames":["1"]},{"stopID":"46","name":"S HOTEL ST + ALAKEA ST","latitude":21.308713,"longitude":-157.859373,"routeShortNames":["1"]},{"stopID":"47","name":"S HOTEL ST + BISHOP ST","latitude":21.309495,"longitude":-157.860523,"routeShortNames":["1"]},{"stopID":"48","name":"S HOTEL ST + BETHEL ST","latitude":21.310442,"longitude":-157.861494,"routeShortNames":["1"]},{"stopID":"50","name":"N HOTEL ST + KEKAULIKE ST","latitude":21.312891,"longitude":-157.863177,"routeShortNames":["1"]},{"stopID":"52","name":"N KING ST + N BERETANIA ST","latitude":21.315949,"longitude":-157.8642,"routeShortNames":["1"]},{"stopID":"53","name":"LILIHA ST + N KING ST","latitude":21.318574,"longitude":-157.863959,"routeShortNames":["1"]},{"stopID":"54","name":"LILIHA ST + VINEYARD BL","latitude":21.319713,"longitude":-157.862462,"routeShortNames":["1"]},{"stopID":"55","name":"LILIHA ST + KAULUWELA PL","latitude":21.320837,"longitude":-157.860957,"routeShortNames":["1"]},{"stopID":"56","name":"LILIHA ST + SCHOOL ST","latitude":21.321755,"longitude":-157.85976,"routeShortNames":["1"]},{"stopID":"57","name":"LILIHA ST + 1657","latitude":21.32283,"longitude":-157.858452,"routeShortNames":["1"]},{"stopID":"58","name":"LILIHA ST + KUAKINI ST","latitude":21.323841,"longitude":-157.857127,"routeShortNames":["1"]},{"stopID":"59","name":"LILIHA ST + ELENA ST","latitude":21.324815,"longitude":-157.85589,"routeShortNames":["1"]},{"stopID":"60","name":"LILIHA ST + BATES ST","latitude":21.325506,"longitude":-157.855023,"routeShortNames":["1"]},{"stopID":"61","name":"LILIHA ST + JUDD ST","latitude":21.326695,"longitude":-157.853601,"routeShortNames":["1"]},{"stopID":"62","name":"LILIHA ST + BACHELOT ST","latitude":21.327464,"longitude":-157.85302,"routeShortNames":[]},{"stopID":"63","name":"LILIHA ST + HALAPIA PL","latitude":21.328799,"longitude":-157.851447,"routeShortNames":[]},{"stopID":"64","name":"LILIHA ST + OPP EKEKELA ST","latitude":21.329717,"longitude":-157.850152,"routeShortNames":[]},{"stopID":"65","name":"LILIHA ST + WYLLIE ST","latitude":21.33053,"longitude":-157.848973,"routeShortNames":[]},{"stopID":"66","name":"LILIHA ST + NAMAUU DR","latitude":21.333084,"longitude":-157.847487,"routeShortNames":[]},{"stopID":"67","name":"SCHOOL ST + LILIHA ST","latitude":21.321934,"longitude":-157.860141,"routeShortNames":[]},{"stopID":"68","name":"SCHOOL ST + ALANEO ST","latitude":21.324643,"longitude":-157.861683,"routeShortNames":[]},{"stopID":"69","name":"SCHOOL ST + LANAKILA AVE","latitude":21.326417,"longitude":-157.862699,"routeShortNames":[]},{"stopID":"70","name":"SCHOOL ST + 1002","latitude":21.327587,"longitude":-157.863373,"routeShortNames":[]},{"stopID":"71","name":"SCHOOL ST + OPP KOKEA ST","latitude":21.329072,"longitude":-157.864236,"routeShortNames":[]},{"stopID":"72","name":"SCHOOL ST + POHAKU ST","latitude":21.330105,"longitude":-157.864823,"routeShortNames":[]},{"stopID":"73","name":"SCHOOL ST + HOUGHTAILING ST","latitude":21.331811,"longitude":-157.866048,"routeShortNames":[]},{"stopID":"74","name":"SCHOOL ST + KAPALAMA ST","latitude":21.334113,"longitude":-157.86787,"routeShortNames":[]},{"stopID":"75","name":"SCHOOL ST + LIKELIKE HWY","latitude":21.335748,"longitude":-157.869173,"routeShortNames":[]},{"stopID":"76","name":"SCHOOL ST + LEILANI ST","latitude":21.337055,"longitude":-157.87065,"routeShortNames":[]},{"stopID":"77","name":"SCHOOL ST + GULICK AVE","latitude":21.337935,"longitude":-157.871895,"routeShortNames":[]},{"stopID":"78","name":"SCHOOL ST + KINO ST","latitude":21.339517,"longitude":-157.87329,"routeShortNames":[]},{"stopID":"79","name":"SCHOOL ST + KAMEHAMEHA IV RD","latitude":21.340924,"longitude":-157.874401,"routeShortNames":[]},{"stopID":"81","name":"SCHOOL ST + NOTLEY ST","latitude":21.342293,"longitude":-157.87825,"routeShortNames":[]},{"stopID":"82","name":"MIDDLE ST + ROSE ST","latitude":21.341283,"longitude":-157.879644,"routeShortNames":[]},{"stopID":"83","name":"MIDDLE ST + OPP KAHAUIKI ST","latitude":21.340575,"longitude":-157.880486,"routeShortNames":[]},{"stopID":"84","name":"MIDDLE ST + KAUA ST","latitude":21.338429,"longitude":-157.883026,"routeShortNames":[]},{"stopID":"87","name":"MONSARRAT AVE + KALAKAUA AVE","latitude":21.269673,"longitude":-157.821121,"routeShortNames":[]},{"stopID":"88","name":"MONSARRAT AVE + KAPIOLANI PARK","latitude":21.269523,"longitude":-157.820664,"routeShortNames":[]},{"stopID":"89","name":"KAPAHULU AVE + CAMPBELL AVE","latitude":21.277968,"longitude":-157.81395,"routeShortNames":[]},{"stopID":"90","name":"CAMPBELL AVE + CASTLE ST","latitude":21.276742,"longitude":-157.813171,"routeShortNames":[]},{"stopID":"91","name":"CAMPBELL AVE + CATHERINE ST","latitude":21.275616,"longitude":-157.812838,"routeShortNames":[]},{"stopID":"92","name":"CAMPBELL AVE + ESTHER ST","latitude":21.274305,"longitude":-157.812442,"routeShortNames":[]},{"stopID":"93","name":"CAMPBELL AVE + GEORGE ST","latitude":21.27305,"longitude":-157.812069,"routeShortNames":[]},{"stopID":"94","name":"CAMPBELL AVE + HINANO ST","latitude":21.271712,"longitude":-157.811707,"routeShortNames":[]},{"stopID":"95","name":"CAMPBELL AVE + MONSARRAT AVE","latitude":21.269812,"longitude":-157.8114,"routeShortNames":[]},{"stopID":"96","name":"MONSARRAT AVE + KANAINA ST","latitude":21.269077,"longitude":-157.813611,"routeShortNames":[]},{"stopID":"101","name":"LILIHA ST + KAUAI ST","latitude":21.334493,"longitude":-157.846653,"routeShortNames":[]},{"stopID":"102","name":"LILIHA ST + 2639","latitude":21.33498,"longitude":-157.845956,"routeShortNames":[]},{"stopID":"103","name":"LILIHA ST + HAWAII ST","latitude":21.335435,"longitude":-157.845302,"routeShortNames":[]},{"stopID":"104","name":"HAWAII ST + PUUNUI AVE","latitude":21.336365,"longitude":-157.84573,"routeShortNames":[]},{"stopID":"105","name":"ROOKE AVE + HAWAII ST","latitude":21.336272,"longitude":-157.846651,"routeShortNames":[]},{"stopID":"106","name":"ROOKE AVE + KAUAI ST","latitude":21.335518,"longitude":-157.847728,"routeShortNames":[]},{"stopID":"107","name":"ROOKE AVE + MAUI ST","latitude":21.334424,"longitude":-157.849183,"routeShortNames":[]},{"stopID":"108","name":"ROOKE AVE + WYLLIE ST","latitude":21.33334,"longitude":-157.850637,"routeShortNames":[]},{"stopID":"109","name":"WYLLIE ST + OPP HUENE ST","latitude":21.332255,"longitude":-157.849926,"routeShortNames":[]},{"stopID":"110","name":"WYLLIE ST + LILIHA ST","latitude":21.330929,"longitude":-157.848819,"routeShortNames":[]},{"stopID":"111","name":"LILIHA ST + ANALU ST","latitude":21.330402,"longitude":-157.849306,"routeShortNames":[]},{"stopID":"112","name":"LILIHA ST + EKEKELA ST","latitude":21.329704,"longitude":-157.8503,"routeShortNames":[]},{"stopID":"113","name":"LILIHA ST + OPP HALAPIA PL","latitude":21.328622,"longitude":-157.851829,"routeShortNames":[]},{"stopID":"114","name":"LILIHA ST + HANANA PL","latitude":21.327239,"longitude":-157.853286,"routeShortNames":[]},{"stopID":"115","name":"LILIHA ST + JUDD ST","latitude":21.326276,"longitude":-157.854186,"routeShortNames":[]},{"stopID":"116","name":"LILIHA ST + PANUI ST","latitude":21.325382,"longitude":-157.855292,"routeShortNames":[]},{"stopID":"117","name":"LILIHA ST + KUNAWAI LN","latitude":21.32477,"longitude":-157.856067,"routeShortNames":[]},{"stopID":"118","name":"LILIHA ST + KUAKINI ST","latitude":21.323861,"longitude":-157.857226,"routeShortNames":[]},{"stopID":"119","name":"LILIHA ST + KELLETT LN","latitude":21.323097,"longitude":-157.858244,"routeShortNames":[]},{"stopID":"120","name":"LILIHA ST + HOLOKAHANA LN","latitude":21.322221,"longitude":-157.859323,"routeShortNames":[]},{"stopID":"121","name":"LILIHA ST + SCHOOL ST","latitude":21.32112,"longitude":-157.860711,"routeShortNames":[]},{"stopID":"122","name":"LILIHA ST + VINEYARD BL","latitude":21.320249,"longitude":-157.861872,"routeShortNames":[]},{"stopID":"123","name":"LILIHA ST + N KING ST","latitude":21.318772,"longitude":-157.863827,"routeShortNames":[]},{"stopID":"124","name":"N KING ST + N BERETANIA ST","latitude":21.316816,"longitude":-157.864327,"routeShortNames":[]},{"stopID":"126","name":"N HOTEL ST + MAUNAKEA ST","latitude":21.312312,"longitude":-157.862868,"routeShortNames":[]},{"stopID":"127","name":"S HOTEL ST + BETHEL ST","latitude":21.310586,"longitude":-157.86167,"routeShortNames":[]},{"stopID":"128","name":"S HOTEL ST + BISHOP ST","latitude":21.309428,"longitude":-157.860534,"routeShortNames":[]},{"stopID":"130","name":"S HOTEL ST + RICHARDS ST","latitude":21.308307,"longitude":-157.858888,"routeShortNames":[]},{"stopID":"131","name":"S KING ST + PUNCHBOWL ST","latitude":21.305103,"longitude":-157.858239,"routeShortNames":[]},{"stopID":"132","name":"S KING ST + SOUTH ST","latitude":21.303626,"longitude":-157.85525,"routeShortNames":[]},{"stopID":"133","name":"S KING ST + COOKE ST","latitude":21.303136,"longitude":-157.853498,"routeShortNames":[]},{"stopID":"135","name":"S KING ST + WARD AVE","latitude":21.301652,"longitude":-157.849339,"routeShortNames":[]},{"stopID":"137","name":"S KING ST + PENSACOLA ST","latitude":21.300443,"longitude":-157.845924,"routeShortNames":[]},{"stopID":"138","name":"S KING ST + PIIKOI ST","latitude":21.299856,"longitude":-157.844223,"routeShortNames":[]},{"stopID":"139","name":"S KING ST + CEDAR ST","latitude":21.299045,"longitude":-157.841921,"routeShortNames":[]},{"stopID":"140","name":"S KING ST + KEEAUMOKU ST","latitude":21.298364,"longitude":-157.839979,"routeShortNames":[]},{"stopID":"141","name":"S KING ST + KAHEKA ST","latitude":21.297695,"longitude":-157.838136,"routeShortNames":[]},{"stopID":"142","name":"KALAKAUA AVE + S KING ST","latitude":21.296535,"longitude":-157.837055,"routeShortNames":[]},{"stopID":"143","name":"KALAKAUA AVE + OPP PHILIP ST","latitude":21.295426,"longitude":-157.837045,"routeShortNames":[]},{"stopID":"144","name":"KALAKAUA AVE + MAKALOA ST","latitude":21.292954,"longitude":-157.836873,"routeShortNames":[]},{"stopID":"145","name":"KALAKAUA AVE + KAPIOLANI BL","latitude":21.290701,"longitude":-157.835856,"routeShortNames":[]},{"stopID":"147","name":"KALAKAUA AVE + ENA RD","latitude":21.28728,"longitude":-157.834044,"routeShortNames":[]},{"stopID":"148","name":"KUHIO AVE + OPP NAMAHANA ST","latitude":21.283762,"longitude":-157.831147,"routeShortNames":[]},{"stopID":"150","name":"KUHIO AVE + LEWERS ST","latitude":21.281497,"longitude":-157.828578,"routeShortNames":[]},{"stopID":"151","name":"KUHIO AVE + SEASIDE AVE","latitude":21.279841,"longitude":-157.826671,"routeShortNames":[]},{"stopID":"152","name":"KUHIO AVE + KAIULANI AVE","latitude":21.277465,"longitude":-157.824278,"routeShortNames":[]},{"stopID":"153","name":"KUHIO AVE + LILIUOKALANI AVE","latitude":21.275579,"longitude":-157.822552,"routeShortNames":[]},{"stopID":"154","name":"KUHIO AVE + PAOAKALANI AVE","latitude":21.274013,"longitude":-157.82142,"routeShortNames":[]},{"stopID":"156","name":"KAPAHULU AVE + KALAKAUA AVE","latitude":21.27164,"longitude":-157.822429,"routeShortNames":[]},{"stopID":"157","name":"KALAKAUA AVE + OPP MONSARRAT AVE","latitude":21.270782,"longitude":-157.822427,"routeShortNames":[]},{"stopID":"159","name":"KALAKAUA AVE + WAIKIKI AQUARIUM","latitude":21.266299,"longitude":-157.821366,"routeShortNames":[]},{"stopID":"161","name":"KALAKAUA AVE + ELKS CLUB","latitude":21.261734,"longitude":-157.820312,"routeShortNames":[]},{"stopID":"162","name":"KALAKAUA AVE + PONI MOI RD","latitude":21.26023,"longitude":-157.819369,"routeShortNames":[]},{"stopID":"163","name":"KALIHI-PALAMA BUS FACILITY","latitude":21.336199,"longitude":-157.886154,"routeShortNames":[]},{"stopID":"164","name":"MIDDLE ST + KAUA ST","latitude":21.33869,"longitude":-157.882546,"routeShortNames":[]},{"stopID":"165","name":"MIDDLE ST + KAHAUIKI ST","latitude":21.340905,"longitude":-157.879974,"routeShortNames":[]},{"stopID":"166","name":"MIDDLE ST + OPP NOTLEY ST","latitude":21.342123,"longitude":-157.87845,"routeShortNames":[]},{"stopID":"169","name":"SCHOOL ST + LINAPUNI ST","latitude":21.33982,"longitude":-157.873627,"routeShortNames":[]},{"stopID":"170","name":"SCHOOL ST + MARTIN ST","latitude":21.338649,"longitude":-157.872685,"routeShortNames":[]},{"stopID":"171","name":"SCHOOL ST + LEILANI ST","latitude":21.336953,"longitude":-157.870643,"routeShortNames":[]},{"stopID":"172","name":"SCHOOL ST + LIKELIKE HWY","latitude":21.335075,"longitude":-157.868723,"routeShortNames":[]},{"stopID":"173","name":"SCHOOL ST + KAPALAMA ST","latitude":21.333913,"longitude":-157.867812,"routeShortNames":[]},{"stopID":"174","name":"SCHOOL ST + HOUGHTAILING ST","latitude":21.332439,"longitude":-157.86667,"routeShortNames":[]},{"stopID":"175","name":"SCHOOL ST + OPP AUPUNI ST","latitude":21.331154,"longitude":-157.865621,"routeShortNames":[]},{"stopID":"176","name":"SCHOOL ST + KOKEA ST","latitude":21.32934,"longitude":-157.864457,"routeShortNames":[]},{"stopID":"177","name":"SCHOOL ST + 1015","latitude":21.328139,"longitude":-157.863772,"routeShortNames":[]},{"stopID":"178","name":"SCHOOL ST + LANAKILA AVE","latitude":21.326976,"longitude":-157.863108,"routeShortNames":[]},{"stopID":"179","name":"SCHOOL ST + OLD PALAMA ST","latitude":21.325828,"longitude":-157.862455,"routeShortNames":[]},{"stopID":"180","name":"SCHOOL ST + MOMOLIO ST","latitude":21.324157,"longitude":-157.8615,"routeShortNames":[]},{"stopID":"181","name":"ALAPAI ST + S KING ST","latitude":21.304125,"longitude":-157.853623,"routeShortNames":[]},{"stopID":"183","name":"KAPAHULU AVE + PAKI","latitude":21.272956,"longitude":-157.817049,"routeShortNames":[]},{"stopID":"184","name":"KAPAHULU AVE + LEAHI AVE","latitude":21.274478,"longitude":-157.815944,"routeShortNames":[]},{"stopID":"186","name":"SEA LIFE PARK","latitude":21.313028,"longitude":-157.663117,"routeShortNames":[]},{"stopID":"187","name":"KALANIANAOLE HWY + HAWAII KAI GOLF COURSE","latitude":21.297009,"longitude":-157.662546,"routeShortNames":[]},{"stopID":"192","name":"KALANIANAOLE HWY + KOKO MARINA CTR","latitude":21.277052,"longitude":-157.706052,"routeShortNames":[]},{"stopID":"193","name":"KALANIANAOLE HWY + OPP PORTLOCK RD","latitude":21.279191,"longitude":-157.708562,"routeShortNames":[]},{"stopID":"195","name":"KALANIANAOLE HWY + HAWAII KAI TOWNE CENTER","latitude":21.282266,"longitude":-157.713402,"routeShortNames":[]},{"stopID":"196","name":"KALANIANAOLE HWY + KEAHOLE ST","latitude":21.283027,"longitude":-157.714985,"routeShortNames":[]},{"stopID":"197","name":"KALANIANAOLE HWY + HAWAII KAI DR","latitude":21.284461,"longitude":-157.717074,"routeShortNames":[]},{"stopID":"198","name":"KALANIANAOLE HWY + KAWAIHAE ST","latitude":21.285754,"longitude":-157.719093,"routeShortNames":[]},{"stopID":"199","name":"KALANIANAOLE HWY + KULIOUOU RD","latitude":21.286164,"longitude":-157.722968,"routeShortNames":[]},{"stopID":"200","name":"KALANIANAOLE HWY + ELELUPE RD","latitude":21.285742,"longitude":-157.724666,"routeShortNames":[]},{"stopID":"201","name":"KALANIANAOLE HWY + OPP PAIKO DR","latitude":21.283065,"longitude":-157.730463,"routeShortNames":[]},{"stopID":"202","name":"KALANIANAOLE HWY + E HALEMAUMAU ST","latitude":21.282163,"longitude":-157.734589,"routeShortNames":[]},{"stopID":"203","name":"KALANIANAOLE HWY + W HALEMAUMAU ST","latitude":21.280932,"longitude":-157.7392,"routeShortNames":[]},{"stopID":"204","name":"KALANIANAOLE HWY + HAWAII LOA ST","latitude":21.280511,"longitude":-157.742727,"routeShortNames":[]},{"stopID":"205","name":"KALANIANAOLE HWY + PUUIKENA DR","latitude":21.280081,"longitude":-157.744509,"routeShortNames":[]},{"stopID":"206","name":"KALANIANAOLE HWY + E HIND DR","latitude":21.278852,"longitude":-157.74936,"routeShortNames":[]},{"stopID":"207","name":"KALANIANAOLE HWY + NENUE ST","latitude":21.278391,"longitude":-157.751937,"routeShortNames":[]},{"stopID":"208","name":"KALANIANAOLE HWY + W HIND DR","latitude":21.278101,"longitude":-157.754417,"routeShortNames":[]},{"stopID":"209","name":"KALANIANAOLE HWY + OPP WAILUPE CIR","latitude":21.277241,"longitude":-157.758028,"routeShortNames":[]},{"stopID":"211","name":"KALANIANAOLE HWY + WAA ST","latitude":21.276329,"longitude":-157.763831,"routeShortNames":[]},{"stopID":"212","name":"KALANIANAOLE HWY + ANALII ST","latitude":21.276245,"longitude":-157.767582,"routeShortNames":[]},{"stopID":"213","name":"KALANIANAOLE HWY + WAIALAE IKI PARK","latitude":21.276749,"longitude":-157.770371,"routeShortNames":[]},{"stopID":"214","name":"KALANIANAOLE HWY + LAUKAHI ST","latitude":21.27709,"longitude":-157.772304,"routeShortNames":[]},{"stopID":"215","name":"KALANIANAOLE HWY + KALANI HIGH SCHOOL","latitude":21.277453,"longitude":-157.77472,"routeShortNames":[]},{"stopID":"216","name":"KALANIANAOLE HWY + KALANIIKI ST","latitude":21.277628,"longitude":-157.776411,"routeShortNames":[]},{"stopID":"217","name":"KALANIANAOLE HWY + AINAKOA AVE","latitude":21.278285,"longitude":-157.781436,"routeShortNames":[]},{"stopID":"218","name":"KILAUEA AVE + WAIALAE AVE","latitude":21.277646,"longitude":-157.784747,"routeShortNames":[]},{"stopID":"219","name":"KILAUEA AVE + PAHOA AVE","latitude":21.275125,"longitude":-157.785136,"routeShortNames":[]},{"stopID":"220","name":"KILAUEA AVE + PUEO ST","latitude":21.272964,"longitude":-157.785856,"routeShortNames":[]},{"stopID":"222","name":"KILAUEA AVE + HUNAKAI ST","latitude":21.269653,"longitude":-157.788872,"routeShortNames":[]},{"stopID":"224","name":"KILAUEA AVE + 22ND AVE","latitude":21.269799,"longitude":-157.793695,"routeShortNames":[]},{"stopID":"226","name":"18TH AVE + KILAUEA AVE","latitude":21.270419,"longitude":-157.797539,"routeShortNames":[]},{"stopID":"227","name":"18TH AVE + OPP IWALANI PL","latitude":21.269535,"longitude":-157.798018,"routeShortNames":[]},{"stopID":"228","name":"18TH AVE + DIAMOND HEAD RD","latitude":21.268031,"longitude":-157.798953,"routeShortNames":[]},{"stopID":"229","name":"DIAMOND HEAD RD + 18TH AVE","latitude":21.267988,"longitude":-157.800337,"routeShortNames":[]},{"stopID":"230","name":"DIAMOND HEAD RD + MAKAPUU AVE","latitude":21.26939,"longitude":-157.802227,"routeShortNames":[]},{"stopID":"231","name":"MONSARRAT AVE + TROUSSEAU ST","latitude":21.269805,"longitude":-157.808008,"routeShortNames":[]},{"stopID":"232","name":"MONSARRAT AVE + CAMPBELL AVE","latitude":21.269476,"longitude":-157.811741,"routeShortNames":[]},{"stopID":"233","name":"PAU ST + ALA WAI BL","latitude":21.286588,"longitude":-157.831682,"routeShortNames":[]},{"stopID":"235","name":"MONSARRAT AVE + KANAINA AVE","latitude":21.269006,"longitude":-157.813811,"routeShortNames":[]},{"stopID":"236","name":"MONSARRAT AVE + CAMPBELL AVE","latitude":21.269482,"longitude":-157.811401,"routeShortNames":[]},{"stopID":"237","name":"MONSARRAT AVE + 3251","latitude":21.269678,"longitude":-157.809533,"routeShortNames":[]},{"stopID":"238","name":"MONSARRAT AVE + OPP TROUSSEAU ST","latitude":21.269728,"longitude":-157.807954,"routeShortNames":[]},{"stopID":"240","name":"DIAMOND HEAD RD + OPP KAPIOLANI COMMUNITY COLLEGE","latitude":21.268714,"longitude":-157.801611,"routeShortNames":[]},{"stopID":"241","name":"DIAMOND HEAD RD + OPP 18TH AVE","latitude":21.267615,"longitude":-157.800017,"routeShortNames":[]},{"stopID":"242","name":"18TH AVE + DIAMOND HEAD RD","latitude":21.267971,"longitude":-157.798914,"routeShortNames":[]},{"stopID":"244","name":"18TH AVE + KILAUEA AVE","latitude":21.270982,"longitude":-157.797153,"routeShortNames":[]},{"stopID":"246","name":"KILAUEA AVE + 22ND AVE","latitude":21.269654,"longitude":-157.793565,"routeShortNames":[]},{"stopID":"247","name":"KILAUEA AVE + PUU PANINI AVE","latitude":21.268587,"longitude":-157.791273,"routeShortNames":[]},{"stopID":"248","name":"KILAUEA AVE + HUNAKAI ST","latitude":21.269639,"longitude":-157.788622,"routeShortNames":[]},{"stopID":"253","name":"KALANIANAOLE HWY + WAIKUI ST","latitude":21.277689,"longitude":-157.779347,"routeShortNames":[]},{"stopID":"254","name":"KALANIANAOLE HWY + WAIELI ST","latitude":21.277307,"longitude":-157.775842,"routeShortNames":[]},{"stopID":"255","name":"KALANIANAOLE HWY + WAIHOLO ST","latitude":21.276796,"longitude":-157.771959,"routeShortNames":[]},{"stopID":"256","name":"KALANIANAOLE HWY + KAIMOKU PL","latitude":21.27595,"longitude":-157.767308,"routeShortNames":[]},{"stopID":"257","name":"KALANIANAOLE HWY + OPP WAA ST","latitude":21.276141,"longitude":-157.763455,"routeShortNames":[]},{"stopID":"259","name":"KALANIANAOLE HWY + WAILUPE CIR","latitude":21.276984,"longitude":-157.757937,"routeShortNames":[]},{"stopID":"260","name":"KALANIANAOLE HWY + OPP W HIND DR","latitude":21.277895,"longitude":-157.75407,"routeShortNames":[]},{"stopID":"262","name":"KALANIANAOLE HWY + OPP E HIND DR","latitude":21.278673,"longitude":-157.748964,"routeShortNames":[]},{"stopID":"263","name":"KALANIANAOLE HWY + OPP PUUIKENA DR","latitude":21.280002,"longitude":-157.74396,"routeShortNames":[]},{"stopID":"264","name":"KALANIANAOLE HWY + OPP W HALEMAUMAU","latitude":21.280728,"longitude":-157.739015,"routeShortNames":[]},{"stopID":"265","name":"KALANIANAOLE HWY + OPP E HALEMAUMAU","latitude":21.282174,"longitude":-157.733607,"routeShortNames":[]},{"stopID":"266","name":"KALANIANAOLE HWY + PAIKO DR","latitude":21.282828,"longitude":-157.730356,"routeShortNames":[]},{"stopID":"267","name":"KALANIANAOLE HWY + PAEOKI PL","latitude":21.285368,"longitude":-157.725148,"routeShortNames":[]},{"stopID":"268","name":"KALANIANAOLE HWY + KULIOUOU RD","latitude":21.285922,"longitude":-157.722897,"routeShortNames":[]},{"stopID":"269","name":"KALANIANAOLE HWY + OPP KAWAIHAE ST","latitude":21.285798,"longitude":-157.719818,"routeShortNames":[]},{"stopID":"271","name":"KALANIANAOLE HWY + OPP KEAHOLE ST","latitude":21.282774,"longitude":-157.714934,"routeShortNames":[]},{"stopID":"272","name":"KALANIANAOLE HWY + 6999","latitude":21.2803,"longitude":-157.710043,"routeShortNames":[]},{"stopID":"273","name":"KALANIANAOLE HWY + PORTLOCK RD","latitude":21.279291,"longitude":-157.70884,"routeShortNames":[]},{"stopID":"277","name":"KALANIANAOLE HWY + OPP HAWAII KAI GOLF COURSE","latitude":21.296997,"longitude":-157.662429,"routeShortNames":[]},{"stopID":"278","name":"HAWAII KAI DR + KALALEA ST","latitude":21.294697,"longitude":-157.686865,"routeShortNames":[]},{"stopID":"279","name":"HAWAII KAI DR + AHUKINI ST","latitude":21.293228,"longitude":-157.684646,"routeShortNames":[]},{"stopID":"280","name":"HAWAII KAI DR + OPP MAUNANANI ST","latitude":21.294049,"longitude":-157.679792,"routeShortNames":[]},{"stopID":"281","name":"MOKUHANO ST + KEKAA ST","latitude":21.296698,"longitude":-157.6765,"routeShortNames":[]},{"stopID":"282","name":"MOKUHANO ST + 1105","latitude":21.29799,"longitude":-157.674214,"routeShortNames":[]},{"stopID":"283","name":"MOKUHANO ST + HONOKAHUA ST","latitude":21.298031,"longitude":-157.670721,"routeShortNames":[]},{"stopID":"284","name":"HONOKAHUA ST + KEPANIWAI ST","latitude":21.299997,"longitude":-157.670791,"routeShortNames":[]},{"stopID":"285","name":"HONOKAHUA ST + 1229","latitude":21.301465,"longitude":-157.671066,"routeShortNames":[]},{"stopID":"286","name":"KAHULUI ST + KEALAHOU ST","latitude":21.302721,"longitude":-157.671743,"routeShortNames":[]},{"stopID":"287","name":"KEALAHOU ST + MUOLEA PL","latitude":21.300521,"longitude":-157.672955,"routeShortNames":[]},{"stopID":"288","name":"KEALAHOU ST + MOKUHANO ST","latitude":21.298409,"longitude":-157.673437,"routeShortNames":[]},{"stopID":"289","name":"KEALAHOU ST + OPP KALOHELANI PL","latitude":21.293393,"longitude":-157.673004,"routeShortNames":[]},{"stopID":"290","name":"KEALAHOU ST + HOLOKAI PL","latitude":21.291892,"longitude":-157.671951,"routeShortNames":[]},{"stopID":"291","name":"KEALAHOU ST + KUANALU PL","latitude":21.291562,"longitude":-157.669963,"routeShortNames":[]},{"stopID":"292","name":"KEALAHOU ST + KIPUKAI PL","latitude":21.292156,"longitude":-157.667322,"routeShortNames":[]},{"stopID":"293","name":"KEALAHOU ST + KALANIANAOLE HWY","latitude":21.291153,"longitude":-157.66556,"routeShortNames":[]},{"stopID":"294","name":"UNIVERSITY AVE + DATE ST","latitude":21.288479,"longitude":-157.824985,"routeShortNames":[]},{"stopID":"296","name":"UNIVERSITY AVE + S KING ST","latitude":21.292204,"longitude":-157.821725,"routeShortNames":[]},{"stopID":"297","name":"UNIVERSITY AVE + DOLE ST","latitude":21.297157,"longitude":-157.82109,"routeShortNames":[]},{"stopID":"298","name":"METCALF ST + UNIVERSITY AVE","latitude":21.29914,"longitude":-157.82136,"routeShortNames":[]},{"stopID":"299","name":"METCALF ST + MARQUES ST","latitude":21.299377,"longitude":-157.824308,"routeShortNames":[]},{"stopID":"300","name":"WILDER AVE + METCALF ST","latitude":21.299341,"longitude":-157.826902,"routeShortNames":[]},{"stopID":"301","name":"WILDER AVE + OPP EVELYN LN","latitude":21.300185,"longitude":-157.82827,"routeShortNames":[]},{"stopID":"303","name":"WILDER AVE + OPP ALEXANDER ST","latitude":21.301686,"longitude":-157.830561,"routeShortNames":[]},{"stopID":"304","name":"WILDER AVE + PUNAHOU ST","latitude":21.302622,"longitude":-157.831966,"routeShortNames":[]},{"stopID":"305","name":"WILDER AVE + MAKIKI ST","latitude":21.303809,"longitude":-157.834584,"routeShortNames":[]},{"stopID":"306","name":"WILDER AVE + KEEAUMOKU ST","latitude":21.304587,"longitude":-157.836099,"routeShortNames":[]},{"stopID":"307","name":"WILDER AVE + KEWALO ST","latitude":21.305386,"longitude":-157.837628,"routeShortNames":[]},{"stopID":"308","name":"WILDER AVE + PIIKOI ST","latitude":21.306578,"longitude":-157.839922,"routeShortNames":[]},{"stopID":"309","name":"PENSACOLA ST + WILDER AVE","latitude":21.307092,"longitude":-157.841534,"routeShortNames":[]},{"stopID":"310","name":"PENSACOLA ST + OPP HASSINGER ST","latitude":21.305648,"longitude":-157.842977,"routeShortNames":[]},{"stopID":"311","name":"PENSACOLA ST + LUNALILO ST","latitude":21.304892,"longitude":-157.843748,"routeShortNames":[]},{"stopID":"314","name":"LUNALILO ST + WARD AVE","latitude":21.306063,"longitude":-157.848928,"routeShortNames":[]},{"stopID":"315","name":"CAPTAIN COOK AVE + ALAPAI ST","latitude":21.306847,"longitude":-157.850153,"routeShortNames":[]},{"stopID":"316","name":"MAGELLAN AVE + FREAR ST","latitude":21.308868,"longitude":-157.851337,"routeShortNames":[]},{"stopID":"317","name":"MAGELLAN AVE + PELE ST","latitude":21.310519,"longitude":-157.851882,"routeShortNames":[]},{"stopID":"318","name":"MAGELLAN AVE + IOLANI AVE","latitude":21.311779,"longitude":-157.852244,"routeShortNames":[]},{"stopID":"319","name":"QUEEN EMMA ST + VINEYARD BL","latitude":21.312063,"longitude":-157.854649,"routeShortNames":[]},{"stopID":"323","name":"PUNCHBOWL ST + STATE CAPITOL","latitude":21.306501,"longitude":-157.856183,"routeShortNames":[]},{"stopID":"324","name":"PUNCHBOWL ST + S KING ST","latitude":21.304824,"longitude":-157.858703,"routeShortNames":[]},{"stopID":"325","name":"QUEEN ST + PUNCHBOWL ST","latitude":21.304466,"longitude":-157.860014,"routeShortNames":[]},{"stopID":"326","name":"QUEEN ST + MILILANI ST","latitude":21.305276,"longitude":-157.860706,"routeShortNames":[]},{"stopID":"327","name":"QUEEN ST + RICHARDS ST","latitude":21.306485,"longitude":-157.861749,"routeShortNames":[]},{"stopID":"328","name":"QUEEN ST + BISHOP ST","latitude":21.307377,"longitude":-157.862528,"routeShortNames":[]},{"stopID":"329","name":"QUEEN ST + FORT ST MALL","latitude":21.30813,"longitude":-157.863226,"routeShortNames":[]},{"stopID":"330","name":"BETHEL ST + S KING ST","latitude":21.310125,"longitude":-157.862229,"routeShortNames":[]},{"stopID":"331","name":"BETHEL ST + S HOTEL ST","latitude":21.31062,"longitude":-157.861349,"routeShortNames":[]},{"stopID":"332","name":"BETHEL ST + S BERETANIA ST","latitude":21.311427,"longitude":-157.860132,"routeShortNames":[]},{"stopID":"333","name":"NUUANU AVE + KUKUI ST","latitude":21.313265,"longitude":-157.85883,"routeShortNames":[]},{"stopID":"334","name":"NUUANU AVE + VINEYARD BL","latitude":21.315002,"longitude":-157.857223,"routeShortNames":[]},{"stopID":"335","name":"NUUANU AVE + N SCHOOL ST","latitude":21.316827,"longitude":-157.855527,"routeShortNames":[]},{"stopID":"336","name":"NUUANU AVE + ILIAHI ST","latitude":21.318087,"longitude":-157.854354,"routeShortNames":[]},{"stopID":"337","name":"NUUANU AVE + KUAKINI ST","latitude":21.319077,"longitude":-157.853413,"routeShortNames":[]},{"stopID":"338","name":"NUUANU AVE + PAUOA RD","latitude":21.321024,"longitude":-157.851563,"routeShortNames":[]},{"stopID":"339","name":"NUUANU AVE + JUDD ST","latitude":21.32299,"longitude":-157.849856,"routeShortNames":[]},{"stopID":"340","name":"NUUANU AVE + NUUANU CEMETERY","latitude":21.324676,"longitude":-157.848639,"routeShortNames":[]},{"stopID":"341","name":"NUUANU AVE + OPP KAWANANAKOA PL","latitude":21.326398,"longitude":-157.847336,"routeShortNames":[]},{"stopID":"342","name":"NUUANU AVE + OPP WYLLIE ST","latitude":21.327254,"longitude":-157.846562,"routeShortNames":[]},{"stopID":"343","name":"PALI HWY + OPP JACK LN","latitude":21.330538,"longitude":-157.843906,"routeShortNames":[]},{"stopID":"344","name":"PALI HWY + AKAMU PL","latitude":21.331322,"longitude":-157.843256,"routeShortNames":[]},{"stopID":"345","name":"PALI HWY + MOANAWAI PL","latitude":21.332885,"longitude":-157.841986,"routeShortNames":[]},{"stopID":"346","name":"PALI HWY + LAIMI RD","latitude":21.334339,"longitude":-157.840884,"routeShortNames":[]},{"stopID":"347","name":"PALI HWY + QUEEN EMMA SUMMER PALACE","latitude":21.335434,"longitude":-157.84006,"routeShortNames":[]},{"stopID":"348","name":"PALI HWY + PUIWA RD","latitude":21.337202,"longitude":-157.837822,"routeShortNames":[]},{"stopID":"349","name":"PALI HWY + DOWSETT AVE (MAKAI)","latitude":21.337854,"longitude":-157.83703,"routeShortNames":[]},{"stopID":"350","name":"PALI HWY + WOOD ST","latitude":21.339248,"longitude":-157.835429,"routeShortNames":[]},{"stopID":"362","name":"MCCULLY ST + KAPIOLANI BL","latitude":21.288815,"longitude":-157.832545,"routeShortNames":[]},{"stopID":"363","name":"KAPIOLANI BL + MCCULLY ST","latitude":21.289168,"longitude":-157.831633,"routeShortNames":[]},{"stopID":"364","name":"KAPIOLANI BL + OPP PAANI ST","latitude":21.288594,"longitude":-157.830132,"routeShortNames":[]},{"stopID":"365","name":"KAPIOLANI BL + OPP ISENBERG ST","latitude":21.287749,"longitude":-157.827913,"routeShortNames":[]},{"stopID":"371","name":"PALI HWY + OPP DOWSETT AVE","latitude":21.340698,"longitude":-157.834241,"routeShortNames":[]},{"stopID":"372","name":"PALI HWY + OPP WOOD ST","latitude":21.33914,"longitude":-157.835899,"routeShortNames":[]},{"stopID":"373","name":"PALI HWY + PULELEHUA WAY","latitude":21.338041,"longitude":-157.837162,"routeShortNames":[]},{"stopID":"374","name":"PALI HWY + COUNTRY CLUB RD","latitude":21.336618,"longitude":-157.839131,"routeShortNames":[]},{"stopID":"375","name":"PALI HWY + AHIPUU ST","latitude":21.335527,"longitude":-157.840397,"routeShortNames":[]},{"stopID":"376","name":"PALI HWY + AHI PL","latitude":21.334119,"longitude":-157.841416,"routeShortNames":[]},{"stopID":"377","name":"PALI HWY + MOANAWAI PL","latitude":21.332838,"longitude":-157.842393,"routeShortNames":[]},{"stopID":"378","name":"PALI HWY + JACK LN","latitude":21.331399,"longitude":-157.843567,"routeShortNames":[]},{"stopID":"379","name":"PALI HWY + NIOLOPA PL","latitude":21.329927,"longitude":-157.844816,"routeShortNames":[]},{"stopID":"380","name":"NUUANU AVE + WYLLIE ST","latitude":21.32764,"longitude":-157.846305,"routeShortNames":[]},{"stopID":"381","name":"NUUANU AVE + KAWANANAKOA PL","latitude":21.326224,"longitude":-157.847583,"routeShortNames":[]},{"stopID":"382","name":"NUUANU AVE + ROBINSON LN","latitude":21.324799,"longitude":-157.848647,"routeShortNames":[]},{"stopID":"384","name":"NUUANU AVE + OPP PAUOA RD","latitude":21.321029,"longitude":-157.851664,"routeShortNames":[]},{"stopID":"385","name":"NUUANU AVE + KUAKINI ST","latitude":21.319601,"longitude":-157.853042,"routeShortNames":[]},{"stopID":"386","name":"NUUANU AVE + OPP ILIAHI ST","latitude":21.318212,"longitude":-157.854341,"routeShortNames":[]},{"stopID":"387","name":"NUUANU AVE + SCHOOL ST","latitude":21.317198,"longitude":-157.855296,"routeShortNames":[]},{"stopID":"388","name":"NUUANU AVE + FOSTER GARDENS","latitude":21.315068,"longitude":-157.857267,"routeShortNames":[]},{"stopID":"390","name":"NUUANU AVE + KUKUI ST","latitude":21.313331,"longitude":-157.858873,"routeShortNames":[]},{"stopID":"391","name":"NUUANU AVE + S BERETANIA ST","latitude":21.312121,"longitude":-157.860234,"routeShortNames":[]},{"stopID":"392","name":"NUUANU AVE + PAUAHI ST","latitude":21.311591,"longitude":-157.861213,"routeShortNames":[]},{"stopID":"393","name":"S KING ST + BETHEL ST","latitude":21.310054,"longitude":-157.862677,"routeShortNames":[]},{"stopID":"397","name":"WARD AVE + LUNALILO ST","latitude":21.305805,"longitude":-157.848625,"routeShortNames":[]},{"stopID":"398","name":"GREEN ST + WARD AVE","latitude":21.306632,"longitude":-157.84773,"routeShortNames":[]},{"stopID":"399","name":"THURSTON ST + GREEN ST","latitude":21.306479,"longitude":-157.846278,"routeShortNames":[]},{"stopID":"400","name":"THURSTON AVE + 1519","latitude":21.306982,"longitude":-157.844398,"routeShortNames":[]},{"stopID":"401","name":"THURSTON AVE + 1571","latitude":21.307413,"longitude":-157.842521,"routeShortNames":[]},{"stopID":"402","name":"WILDER AVE + PENSACOLA ST","latitude":21.307348,"longitude":-157.841536,"routeShortNames":[]},{"stopID":"403","name":"WILDER AVE + PIIKOI ST","latitude":21.306422,"longitude":-157.839787,"routeShortNames":[]},{"stopID":"404","name":"WILDER AVE + KEWALO ST","latitude":21.305547,"longitude":-157.838102,"routeShortNames":[]},{"stopID":"405","name":"WILDER AVE + KEEAUMOKU ST","latitude":21.304485,"longitude":-157.836067,"routeShortNames":[]},{"stopID":"406","name":"WILDER AVE + MAKIKI ST","latitude":21.303744,"longitude":-157.834622,"routeShortNames":[]},{"stopID":"407","name":"WILDER AVE + PUNAHOU ST","latitude":21.302988,"longitude":-157.832837,"routeShortNames":[]},{"stopID":"408","name":"WILDER AVE + HALEKULA WAY","latitude":21.302128,"longitude":-157.831364,"routeShortNames":[]},{"stopID":"409","name":"WILDER AVE + ALEXANDER ST","latitude":21.30133,"longitude":-157.830154,"routeShortNames":[]},{"stopID":"410","name":"WILDER AVE + EVELYN LN","latitude":21.300216,"longitude":-157.828456,"routeShortNames":[]},{"stopID":"411","name":"WILDER AVE + METCALF ST","latitude":21.299316,"longitude":-157.827006,"routeShortNames":[]},{"stopID":"412","name":"METCALF ST + HOONANEA ST","latitude":21.299243,"longitude":-157.823616,"routeShortNames":[]},{"stopID":"413","name":"UNIVERSITY AVE + METCALF ST","latitude":21.298674,"longitude":-157.821231,"routeShortNames":[]},{"stopID":"414","name":"UNIVERSITY AVE + DOLE ST","latitude":21.296531,"longitude":-157.821292,"routeShortNames":[]},{"stopID":"415","name":"UNIVERSITY AVE + COYNE ST","latitude":21.293108,"longitude":-157.821408,"routeShortNames":[]},{"stopID":"416","name":"UNIVERSITY AVE + S KING ST","latitude":21.291731,"longitude":-157.822179,"routeShortNames":[]},{"stopID":"418","name":"KAPIOLANI BL + UNIVERSITY AVE","latitude":21.287473,"longitude":-157.825334,"routeShortNames":[]},{"stopID":"423","name":"MCCULLY ST + KAPIOLANI BL","latitude":21.289861,"longitude":-157.832239,"routeShortNames":[]},{"stopID":"424","name":"MCCULLY ST + ALA WAI BL","latitude":21.288784,"longitude":-157.832669,"routeShortNames":[]},{"stopID":"425","name":"KONA ST + OPP KONA IKI ST (FS)","latitude":21.292668,"longitude":-157.844123,"routeShortNames":[]},{"stopID":"426","name":"KONA ST + OPP KEEAUMOKU ST (NS)","latitude":21.292165,"longitude":-157.843003,"routeShortNames":[]},{"stopID":"427","name":"MAHUKONA ST + ATKINSON DR","latitude":21.290322,"longitude":-157.840207,"routeShortNames":[]},{"stopID":"428","name":"ALA MOANA BL + ALA MOANA CENTER","latitude":21.289919,"longitude":-157.844622,"routeShortNames":[]},{"stopID":"429","name":"PIIKOI ST + ALA MOANA BL","latitude":21.291914,"longitude":-157.847323,"routeShortNames":[]},{"stopID":"431","name":"KAPIOLANI BL + OPP KAMAKEE ST","latitude":21.296442,"longitude":-157.849964,"routeShortNames":[]},{"stopID":"433","name":"KAPIOLANI BL + WARD AVE","latitude":21.298797,"longitude":-157.85252,"routeShortNames":[]},{"stopID":"435","name":"KAPIOLANI BL + COOKE ST","latitude":21.301587,"longitude":-157.854572,"routeShortNames":[]},{"stopID":"436","name":"KAPIOLANI BL + SOUTH ST","latitude":21.303298,"longitude":-157.855387,"routeShortNames":[]},{"stopID":"437","name":"S BERETANIA ST + BISHOP ST","latitude":21.310404,"longitude":-157.858507,"routeShortNames":[]},{"stopID":"438","name":"N BERETANIA ST + OPP SMITH ST","latitude":21.312799,"longitude":-157.860645,"routeShortNames":[]},{"stopID":"439","name":"N BERETANIA ST + OPP RIVER ST","latitude":21.314069,"longitude":-157.861813,"routeShortNames":[]},{"stopID":"440","name":"N BERETANIA ST + N KING ST","latitude":21.316416,"longitude":-157.863966,"routeShortNames":[]},{"stopID":"441","name":"DILLINGHAM BL + N KING ST","latitude":21.318441,"longitude":-157.865818,"routeShortNames":[]},{"stopID":"442","name":"DILLINGHAM BL + AKEPO LN","latitude":21.319205,"longitude":-157.868168,"routeShortNames":[]},{"stopID":"444","name":"DILLINGHAM BL + KOKEA ST","latitude":21.321734,"longitude":-157.872468,"routeShortNames":[]},{"stopID":"446","name":"DILLINGHAM BL + WAIAKAMILO RD","latitude":21.323742,"longitude":-157.875751,"routeShortNames":[]},{"stopID":"447","name":"DILLINGHAM BL + MCNEILL ST","latitude":21.325548,"longitude":-157.877894,"routeShortNames":[]},{"stopID":"448","name":"DILLINGHAM BL + KALIHI ST","latitude":21.326724,"longitude":-157.879245,"routeShortNames":[]},{"stopID":"449","name":"DILLINGHAM BL + MOKAUEA ST","latitude":21.32824,"longitude":-157.88103,"routeShortNames":[]},{"stopID":"450","name":"KAMEHAMEHA HWY + PUUHALE RD","latitude":21.329901,"longitude":-157.883024,"routeShortNames":[]},{"stopID":"451","name":"KAMEHAMEHA HWY + LAUMAKA ST","latitude":21.330803,"longitude":-157.884325,"routeShortNames":[]},{"stopID":"452","name":"KAMEHAMEHA HWY + 2305","latitude":21.332134,"longitude":-157.886173,"routeShortNames":[]},{"stopID":"453","name":"KAMEHAMEHA HWY + MIDDLE ST","latitude":21.333142,"longitude":-157.888675,"routeShortNames":[]},{"stopID":"454","name":"FARRINGTON HWY + KAHUALII ST","latitude":21.389421,"longitude":-157.994828,"routeShortNames":[]},{"stopID":"455","name":"FARRINGTON HWY + PAIWA ST","latitude":21.386542,"longitude":-157.998303,"routeShortNames":[]},{"stopID":"456","name":"FARRINGTON HWY + OPP AWAMOKU ST","latitude":21.385086,"longitude":-158.00052,"routeShortNames":[]},{"stopID":"459","name":"FARRINGTON HWY + MAKAMAKA PL","latitude":21.383122,"longitude":-158.010155,"routeShortNames":[]},{"stopID":"460","name":"FARRINGTON HWY + ANIANI PL","latitude":21.38227,"longitude":-158.01394,"routeShortNames":[]},{"stopID":"461","name":"FARRINGTON HWY + PUPUPUHI ST","latitude":21.381665,"longitude":-158.015807,"routeShortNames":[]},{"stopID":"462","name":"FARRINGTON HWY + PUPUKAHI ST","latitude":21.380304,"longitude":-158.018785,"routeShortNames":[]},{"stopID":"463","name":"FARRINGTON HWY + LEOKANE ST","latitude":21.379556,"longitude":-158.020252,"routeShortNames":[]},{"stopID":"464","name":"FARRINGTON HWY + LEOKU ST","latitude":21.378278,"longitude":-158.022711,"routeShortNames":[]},{"stopID":"465","name":"NIMITZ HWY + KAKOI ST","latitude":21.334816,"longitude":-157.895855,"routeShortNames":[]},{"stopID":"468","name":"NIMITZ HWY + OPP OHOHIA ST","latitude":21.336358,"longitude":-157.907705,"routeShortNames":[]},{"stopID":"469","name":"NIMITZ HWY + OPP PAIEA ST","latitude":21.337255,"longitude":-157.913922,"routeShortNames":[]},{"stopID":"470","name":"NIMITZ HWY + OPP RODGERS BL","latitude":21.337954,"longitude":-157.918545,"routeShortNames":[]},{"stopID":"471","name":"NIMITZ HWY + OPP AOLELE ST","latitude":21.338594,"longitude":-157.923017,"routeShortNames":[]},{"stopID":"472","name":"NIMITZ HWY + OPP ELLIOTT ST","latitude":21.339325,"longitude":-157.927212,"routeShortNames":[]},{"stopID":"473","name":"NIMITZ HWY + VALKENBURGH ST","latitude":21.340177,"longitude":-157.929304,"routeShortNames":[]},{"stopID":"474","name":"KAMEHAMEHA HWY + CENTER DR","latitude":21.349738,"longitude":-157.934749,"routeShortNames":[]},{"stopID":"475","name":"KAMEHAMEHA HWY + RADFORD DR","latitude":21.353604,"longitude":-157.935595,"routeShortNames":[]},{"stopID":"476","name":"KAMEHAMEHA HWY + HALAWA DR","latitude":21.362788,"longitude":-157.937724,"routeShortNames":[]},{"stopID":"477","name":"KAMEHAMEHA HWY + KALALOA ST","latitude":21.366776,"longitude":-157.936415,"routeShortNames":[]},{"stopID":"478","name":"KAMEHAMEHA HWY + KOHOMUA ST","latitude":21.369006,"longitude":-157.935308,"routeShortNames":[]},{"stopID":"479","name":"KAMEHAMEHA HWY + SALT LAKE BL","latitude":21.371648,"longitude":-157.933668,"routeShortNames":[]},{"stopID":"480","name":"KAMEHAMEHA HWY + HONOMANU ST","latitude":21.37965,"longitude":-157.937631,"routeShortNames":[]},{"stopID":"481","name":"KAMEHAMEHA HWY + PALI MOMI ST","latitude":21.381792,"longitude":-157.942323,"routeShortNames":[]},{"stopID":"482","name":"KAMEHAMEHA HWY + KAONOHI ST","latitude":21.383059,"longitude":-157.945109,"routeShortNames":[]},{"stopID":"484","name":"KAMEHAMEHA HWY + HEKAHA ST","latitude":21.385588,"longitude":-157.950608,"routeShortNames":[]},{"stopID":"485","name":"KAMEHAMEHA HWY + KAAHUMANU ST","latitude":21.386997,"longitude":-157.953739,"routeShortNames":[]},{"stopID":"486","name":"KAMEHAMEHA HWY + HILA PL","latitude":21.387701,"longitude":-157.955292,"routeShortNames":[]},{"stopID":"487","name":"KAMEHAMEHA HWY + KULEANA ST","latitude":21.389246,"longitude":-157.958705,"routeShortNames":[]},{"stopID":"488","name":"KAMEHAMEHA HWY + H-1 FWY","latitude":21.390997,"longitude":-157.962512,"routeShortNames":[]},{"stopID":"489","name":"KAMEHAMEHA HWY + PUU PONI ST","latitude":21.392088,"longitude":-157.964912,"routeShortNames":[]},{"stopID":"490","name":"KAMEHAMEHA HWY + PUU MOMI ST","latitude":21.392998,"longitude":-157.967358,"routeShortNames":[]},{"stopID":"491","name":"KAMEHAMEHA HWY + WAIMANO HOME RD","latitude":21.394299,"longitude":-157.971092,"routeShortNames":[]},{"stopID":"492","name":"KAMEHAMEHA HWY + ACACIA RD","latitude":21.395579,"longitude":-157.974831,"routeShortNames":[]},{"stopID":"493","name":"FARRINGTON HWY + OPP WAIAWA RD","latitude":21.396219,"longitude":-157.981945,"routeShortNames":[]},{"stopID":"494","name":"MAKAKILO DR + FARRINGTON HWY","latitude":21.340974,"longitude":-158.076795,"routeShortNames":[]},{"stopID":"495","name":"FARRINGTON HWY + OPP KAPOUKA PL","latitude":21.338629,"longitude":-158.078239,"routeShortNames":[]},{"stopID":"498","name":"KAPOLEI PKWY + KAMOKILA BL","latitude":21.328116,"longitude":-158.088098,"routeShortNames":[]},{"stopID":"499","name":"FARRINGTON HWY + OPP LAALOA ST","latitude":21.341811,"longitude":-158.106729,"routeShortNames":[]},{"stopID":"500","name":"FARRINGTON HWY + OPP WAIOMEA ST","latitude":21.344035,"longitude":-158.113184,"routeShortNames":[]},{"stopID":"502","name":"FARRINGTON HWY + OPP KAHE POINT BEACH PARK","latitude":21.353639,"longitude":-158.129563,"routeShortNames":[]},{"stopID":"503","name":"FARRINGTON HWY + KAHE POWER PLANT","latitude":21.356649,"longitude":-158.129863,"routeShortNames":[]},{"stopID":"504","name":"FARRINGTON HWY + OPP POHAKUNUI AVE","latitude":21.370403,"longitude":-158.136324,"routeShortNames":[]},{"stopID":"505","name":"FARRINGTON HWY + PILIOKAHI AVE","latitude":21.373536,"longitude":-158.138236,"routeShortNames":[]},{"stopID":"507","name":"FARRINGTON HWY + NANAKULI AVE","latitude":21.37892,"longitude":-158.142642,"routeShortNames":[]},{"stopID":"508","name":"FARRINGTON HWY + NANAKULI VILLAGE CENTER","latitude":21.381331,"longitude":-158.145239,"routeShortNames":[]},{"stopID":"509","name":"FARRINGTON HWY + HALEAKALA AVE","latitude":21.383168,"longitude":-158.147233,"routeShortNames":[]},{"stopID":"510","name":"FARRINGTON HWY + HELELUA ST","latitude":21.384751,"longitude":-158.148939,"routeShortNames":[]},{"stopID":"511","name":"FARRINGTON HWY + LUALUALEI NAVAL RD","latitude":21.386741,"longitude":-158.1511,"routeShortNames":[]},{"stopID":"512","name":"FARRINGTON HWY + MAALOA ST","latitude":21.388489,"longitude":-158.152975,"routeShortNames":[]},{"stopID":"513","name":"FARRINGTON HWY + AUYONG HOMESTEAD RD","latitude":21.390012,"longitude":-158.154645,"routeShortNames":[]},{"stopID":"514","name":"FARRINGTON HWY + MOHIHI ST","latitude":21.39145,"longitude":-158.156209,"routeShortNames":[]},{"stopID":"515","name":"FARRINGTON HWY + PRINCESS KAHANU AVE","latitude":21.393412,"longitude":-158.158353,"routeShortNames":[]},{"stopID":"516","name":"FARRINGTON HWY + 87-1624","latitude":21.394943,"longitude":-158.160237,"routeShortNames":[]},{"stopID":"518","name":"FARRINGTON HWY + HAKIMO RD","latitude":21.396788,"longitude":-158.163554,"routeShortNames":[]},{"stopID":"519","name":"FARRINGTON HWY + 87-1420","latitude":21.397518,"longitude":-158.165598,"routeShortNames":[]},{"stopID":"520","name":"FARRINGTON HWY + 87-1440","latitude":21.397949,"longitude":-158.167657,"routeShortNames":[]},{"stopID":"521","name":"FARRINGTON HWY + 87-1470","latitude":21.39828,"longitude":-158.169945,"routeShortNames":[]},{"stopID":"522","name":"FARRINGTON HWY + KAUKAMA RD","latitude":21.404498,"longitude":-158.176821,"routeShortNames":[]},{"stopID":"523","name":"FARRINGTON HWY + MAIPALAOA RD","latitude":21.409987,"longitude":-158.176872,"routeShortNames":[]},{"stopID":"524","name":"FARRINGTON HWY + MANUNUNU ST","latitude":21.411462,"longitude":-158.176599,"routeShortNames":[]},{"stopID":"526","name":"FARRINGTON HWY + ST JOHNS RD","latitude":21.415189,"longitude":-158.176771,"routeShortNames":[]},{"stopID":"527","name":"FARRINGTON HWY + KIMO ST","latitude":21.418281,"longitude":-158.177252,"routeShortNames":[]},{"stopID":"528","name":"FARRINGTON HWY + MAIPELA ST","latitude":21.421081,"longitude":-158.177705,"routeShortNames":[]},{"stopID":"530","name":"FARRINGTON HWY + KAUKAMANA ST","latitude":21.423696,"longitude":-158.178137,"routeShortNames":[]},{"stopID":"532","name":"FARRINGTON HWY + ALAPAKI ST","latitude":21.426243,"longitude":-158.178564,"routeShortNames":[]},{"stopID":"533","name":"FARRINGTON HWY + MAILIILI RD","latitude":21.429661,"longitude":-158.181124,"routeShortNames":[]},{"stopID":"534","name":"FARRINGTON HWY + C&C BASE YARD","latitude":21.430915,"longitude":-158.182757,"routeShortNames":[]},{"stopID":"536","name":"FARRINGTON HWY + LEIHOKU ST","latitude":21.436395,"longitude":-158.185077,"routeShortNames":[]},{"stopID":"537","name":"FARRINGTON HWY + PUHANO ST","latitude":21.439562,"longitude":-158.186046,"routeShortNames":[]},{"stopID":"538","name":"FARRINGTON HWY + WAIANAE VALLEY RD","latitude":21.442191,"longitude":-158.186871,"routeShortNames":[]},{"stopID":"539","name":"FARRINGTON HWY + OPP BAYVIEW ST","latitude":21.444334,"longitude":-158.187576,"routeShortNames":[]},{"stopID":"540","name":"FARRINGTON HWY + PLANTATION RD","latitude":21.446406,"longitude":-158.188465,"routeShortNames":[]},{"stopID":"541","name":"FARRINGTON HWY + OLD GOVERNMENT RD","latitude":21.448112,"longitude":-158.189407,"routeShortNames":[]},{"stopID":"542","name":"FARRINGTON HWY + KAUIOKALANI PL","latitude":21.449807,"longitude":-158.190941,"routeShortNames":[]},{"stopID":"543","name":"FARRINGTON HWY + WAIANAE INTERMEDIATE SCHOOL","latitude":21.45127,"longitude":-158.192914,"routeShortNames":[]},{"stopID":"544","name":"FARRINGTON HWY + ALA WALUA ST","latitude":21.453301,"longitude":-158.195728,"routeShortNames":[]},{"stopID":"545","name":"FARRINGTON HWY + ALA AKAU ST","latitude":21.45473,"longitude":-158.197728,"routeShortNames":[]},{"stopID":"546","name":"FARRINGTON HWY + ALAWA PL","latitude":21.457824,"longitude":-158.202001,"routeShortNames":[]},{"stopID":"547","name":"FARRINGTON HWY + MAIUU RD","latitude":21.45882,"longitude":-158.203557,"routeShortNames":[]},{"stopID":"548","name":"FARRINGTON HWY + MAKAHA VALLEY RD","latitude":21.460356,"longitude":-158.206924,"routeShortNames":[]},{"stopID":"549","name":"FARRINGTON HWY + OPP LAHILAHI ST (EAST)","latitude":21.461801,"longitude":-158.210013,"routeShortNames":[]},{"stopID":"551","name":"FARRINGTON HWY + JADE ST","latitude":21.464215,"longitude":-158.212924,"routeShortNames":[]},{"stopID":"552","name":"FARRINGTON HWY + NALU NANI CT","latitude":21.466625,"longitude":-158.214206,"routeShortNames":[]},{"stopID":"553","name":"FARRINGTON HWY + OPP MOUA ST","latitude":21.468823,"longitude":-158.21538,"routeShortNames":[]},{"stopID":"554","name":"FARRINGTON HWY + KIAPA PL","latitude":21.470651,"longitude":-158.216353,"routeShortNames":[]},{"stopID":"555","name":"FARRINGTON HWY + WATER ST","latitude":21.471862,"longitude":-158.216989,"routeShortNames":[]},{"stopID":"558","name":"FARRINGTON HWY + OPP MAKAHA SHORES","latitude":21.479194,"longitude":-158.223659,"routeShortNames":[]},{"stopID":"559","name":"LAWAIA ST + MAKAU ST","latitude":21.48208,"longitude":-158.228463,"routeShortNames":[]},{"stopID":"560","name":"MAKAU ST + OPP HOLT ST","latitude":21.480344,"longitude":-158.2278,"routeShortNames":[]},{"stopID":"561","name":"MAKAU ST + 84-245","latitude":21.479512,"longitude":-158.227396,"routeShortNames":[]},{"stopID":"562","name":"MAKAU ST + FARRINGTON HWY","latitude":21.479562,"longitude":-158.22481,"routeShortNames":[]},{"stopID":"563","name":"FARRINGTON HWY + MAKAHA SHORES","latitude":21.47914,"longitude":-158.22369,"routeShortNames":[]},{"stopID":"567","name":"HUIPU DR + ALA MAHIKU ST","latitude":21.481034,"longitude":-158.201514,"routeShortNames":[]},{"stopID":"569","name":"MAKAHA VALLEY RD + FARRINGTON HWY","latitude":21.460377,"longitude":-158.206628,"routeShortNames":[]},{"stopID":"570","name":"MAKAHA VALLEY RD + KAULAILI RD","latitude":21.4624,"longitude":-158.204424,"routeShortNames":[]},{"stopID":"571","name":"MAKAHA VALLEY RD + KAULAWAHA RD","latitude":21.46515,"longitude":-158.202087,"routeShortNames":[]},{"stopID":"572","name":"MAKAHA VALLEY RD + NOHOLIO RD","latitude":21.466758,"longitude":-158.200806,"routeShortNames":[]},{"stopID":"573","name":"ALA HOLO LP + OPP MAKAHA GOLF CLUB","latitude":21.475778,"longitude":-158.199525,"routeShortNames":[]},{"stopID":"574","name":"HUIPU DR + MAUNAOLU ST","latitude":21.47759,"longitude":-158.19829,"routeShortNames":[]},{"stopID":"575","name":"HUIPU DR + OPP ALA MAHIKU ST","latitude":21.48108,"longitude":-158.201451,"routeShortNames":[]},{"stopID":"576","name":"HUIPU DR + KILI DR","latitude":21.482446,"longitude":-158.202366,"routeShortNames":[]},{"stopID":"578","name":"FARRINGTON HWY + MAKAHA BEACH PARK","latitude":21.476519,"longitude":-158.2196,"routeShortNames":[]},{"stopID":"579","name":"KAMEHAMEHA HWY + OPP MIDDLE ST","latitude":21.332285,"longitude":-157.887105,"routeShortNames":[]},{"stopID":"580","name":"KAMEHAMEHA HWY + OPP LAUMAKA ST","latitude":21.330692,"longitude":-157.884297,"routeShortNames":[]},{"stopID":"581","name":"DILLINGHAM BL + PUUHALE RD","latitude":21.329529,"longitude":-157.882675,"routeShortNames":[]},{"stopID":"582","name":"DILLINGHAM BL + MOKAUEA ST","latitude":21.328079,"longitude":-157.880957,"routeShortNames":[]},{"stopID":"583","name":"DILLINGHAM BL + KALIHI ST","latitude":21.326717,"longitude":-157.879354,"routeShortNames":[]},{"stopID":"584","name":"DILLINGHAM BL + MCNEILL ST","latitude":21.32567,"longitude":-157.878156,"routeShortNames":[]},{"stopID":"585","name":"DILLINGHAM BL + WAIAKAMILO RD","latitude":21.324089,"longitude":-157.876292,"routeShortNames":[]},{"stopID":"586","name":"DILLINGHAM BL + KOHOU ST","latitude":21.322253,"longitude":-157.873549,"routeShortNames":[]},{"stopID":"587","name":"DILLINGHAM BL + KOKEA ST","latitude":21.32174,"longitude":-157.872627,"routeShortNames":[]},{"stopID":"589","name":"DILLINGHAM BL + OPP AKEPO LN","latitude":21.319327,"longitude":-157.868597,"routeShortNames":[]},{"stopID":"590","name":"DILLINGHAM BL + N KING ST","latitude":21.318368,"longitude":-157.865685,"routeShortNames":[]},{"stopID":"591","name":"N KING ST + N BERETANIA ST","latitude":21.315792,"longitude":-157.86428,"routeShortNames":[]},{"stopID":"592","name":"N KING ST + RIVER ST","latitude":21.313323,"longitude":-157.864284,"routeShortNames":[]},{"stopID":"595","name":"KAPIOLANI BL + SOUTH ST","latitude":21.30318,"longitude":-157.855424,"routeShortNames":[]},{"stopID":"596","name":"KAPIOLANI BL + COOKE ST","latitude":21.30146,"longitude":-157.854598,"routeShortNames":[]},{"stopID":"598","name":"KAPIOLANI BL + WARD AVE","latitude":21.298663,"longitude":-157.852527,"routeShortNames":[]},{"stopID":"600","name":"KAPIOLANI BL + KAMAKEE ST","latitude":21.296346,"longitude":-157.849973,"routeShortNames":[]},{"stopID":"602","name":"KAPIOLANI BL + PIIKOI ST","latitude":21.294785,"longitude":-157.846457,"routeShortNames":[]},{"stopID":"603","name":"KAPIOLANI BL + KONA IKI ST","latitude":21.293939,"longitude":-157.844546,"routeShortNames":[]},{"stopID":"604","name":"FARRINGTON HWY + UPENA ST (WEST)","latitude":21.47423,"longitude":-158.218332,"routeShortNames":[]},{"stopID":"605","name":"FARRINGTON HWY + OPP WATER ST","latitude":21.471846,"longitude":-158.217069,"routeShortNames":[]},{"stopID":"606","name":"FARRINGTON HWY + UPENA ST (EAST)","latitude":21.470571,"longitude":-158.216398,"routeShortNames":[]},{"stopID":"607","name":"FARRINGTON HWY + MOUA ST (WEST)","latitude":21.468733,"longitude":-158.215422,"routeShortNames":[]},{"stopID":"608","name":"FARRINGTON HWY + MOUA ST (EAST)","latitude":21.466503,"longitude":-158.214258,"routeShortNames":[]},{"stopID":"609","name":"FARRINGTON HWY + OPP JADE ST","latitude":21.464181,"longitude":-158.213013,"routeShortNames":[]},{"stopID":"611","name":"FARRINGTON HWY + LAHILAHI ST (EAST)","latitude":21.461727,"longitude":-158.210033,"routeShortNames":[]},{"stopID":"612","name":"FARRINGTON HWY + OPP MAKAHA VALLEY RD","latitude":21.460265,"longitude":-158.206903,"routeShortNames":[]},{"stopID":"613","name":"FARRINGTON HWY + OPP MAIUU RD","latitude":21.458495,"longitude":-158.203124,"routeShortNames":[]},{"stopID":"614","name":"FARRINGTON HWY + OPP ALAWA PL","latitude":21.457359,"longitude":-158.201488,"routeShortNames":[]},{"stopID":"615","name":"FARRINGTON HWY + OPP KAULAWAHA RD","latitude":21.455214,"longitude":-158.198535,"routeShortNames":[]},{"stopID":"616","name":"FARRINGTON HWY + OPP ALA WALUA ST","latitude":21.453058,"longitude":-158.195517,"routeShortNames":[]},{"stopID":"617","name":"FARRINGTON HWY + OPP WAIANAE INTERMEDIATE SCHOOL","latitude":21.451207,"longitude":-158.192955,"routeShortNames":[]},{"stopID":"618","name":"FARRINGTON HWY + OPP ALA HEMA ST","latitude":21.449347,"longitude":-158.190565,"routeShortNames":[]},{"stopID":"619","name":"FARRINGTON HWY + KAUPUNI ST","latitude":21.448043,"longitude":-158.189456,"routeShortNames":[]},{"stopID":"620","name":"FARRINGTON HWY + GUARD ST","latitude":21.44538,"longitude":-158.188081,"routeShortNames":[]},{"stopID":"622","name":"FARRINGTON HWY + WAIANAE VALLEY RD","latitude":21.4428,"longitude":-158.18716,"routeShortNames":[]},{"stopID":"623","name":"FARRINGTON HWY + LUALUALEI HOMESTEAD RD","latitude":21.442217,"longitude":-158.187003,"routeShortNames":[]},{"stopID":"624","name":"FARRINGTON HWY + OPP PUHANO ST","latitude":21.439615,"longitude":-158.186169,"routeShortNames":[]},{"stopID":"625","name":"FARRINGTON HWY + OPP LEIHOKU ST","latitude":21.435669,"longitude":-158.184921,"routeShortNames":[]},{"stopID":"627","name":"FARRINGTON HWY + OPP C&C BASEYARD","latitude":21.431429,"longitude":-158.183169,"routeShortNames":[]},{"stopID":"628","name":"FARRINGTON HWY + OPP MAILIILI RD","latitude":21.429199,"longitude":-158.180473,"routeShortNames":[]},{"stopID":"629","name":"FARRINGTON HWY + OPP ALAPAKI ST","latitude":21.425987,"longitude":-158.178625,"routeShortNames":[]},{"stopID":"631","name":"FARRINGTON HWY + OPP KAUKAMANA ST","latitude":21.423726,"longitude":-158.178223,"routeShortNames":[]},{"stopID":"632","name":"FARRINGTON HWY + OPP MALIONA ST","latitude":21.420291,"longitude":-158.177667,"routeShortNames":[]},{"stopID":"634","name":"FARRINGTON HWY + OPP ST JOHNS RD","latitude":21.415541,"longitude":-158.176904,"routeShortNames":[]},{"stopID":"635","name":"FARRINGTON HWY + OPP MANUNUNU ST","latitude":21.412571,"longitude":-158.176553,"routeShortNames":[]},{"stopID":"636","name":"FARRINGTON HWY + ULEHAWA BEACH PARK","latitude":21.410453,"longitude":-158.176865,"routeShortNames":[]},{"stopID":"637","name":"FARRINGTON HWY + OPP MAIPALAOA RD","latitude":21.408334,"longitude":-158.177276,"routeShortNames":[]},{"stopID":"638","name":"FARRINGTON HWY + OPP HOOKELE ST","latitude":21.405603,"longitude":-158.177177,"routeShortNames":[]},{"stopID":"642","name":"FARRINGTON HWY + OPP HAKIMO RD","latitude":21.396408,"longitude":-158.162902,"routeShortNames":[]},{"stopID":"644","name":"FARRINGTON HWY + OPP PRINCESS KAHANU AV","latitude":21.394377,"longitude":-158.159628,"routeShortNames":[]},{"stopID":"645","name":"FARRINGTON HWY + OPP MOHIHI ST","latitude":21.391589,"longitude":-158.15647,"routeShortNames":[]},{"stopID":"646","name":"FARRINGTON HWY + OPP AUYONG HOMESTEAD RD","latitude":21.389475,"longitude":-158.154167,"routeShortNames":[]},{"stopID":"648","name":"FARRINGTON HWY + OPP NANAIKEOLA ST","latitude":21.385857,"longitude":-158.150241,"routeShortNames":[]},{"stopID":"649","name":"FARRINGTON HWY + OPP HELELUA ST","latitude":21.38454,"longitude":-158.148826,"routeShortNames":[]},{"stopID":"650","name":"FARRINGTON HWY + OPP HALEAKALA AVE","latitude":21.382765,"longitude":-158.146918,"routeShortNames":[]},{"stopID":"651","name":"FARRINGTON HWY + OPP NANAKULI VILLAGE CENTER","latitude":21.38092,"longitude":-158.144926,"routeShortNames":[]},{"stopID":"652","name":"FARRINGTON HWY + OPP NANAKULI AVE","latitude":21.378829,"longitude":-158.142658,"routeShortNames":[]},{"stopID":"654","name":"FARRINGTON HWY + PILIOKAHI AVE","latitude":21.372656,"longitude":-158.137795,"routeShortNames":[]},{"stopID":"655","name":"FARRINGTON HWY + POHAKUNUI AVE","latitude":21.370291,"longitude":-158.136345,"routeShortNames":[]},{"stopID":"656","name":"FARRINGTON HWY + OPP KAHE POWER PLANT","latitude":21.357286,"longitude":-158.130353,"routeShortNames":[]},{"stopID":"657","name":"FARRINGTON HWY + KAHE POINT BEACH PARK","latitude":21.353266,"longitude":-158.129823,"routeShortNames":[]},{"stopID":"659","name":"FARRINGTON HWY + ALIINUI DR","latitude":21.347628,"longitude":-158.126624,"routeShortNames":[]},{"stopID":"660","name":"FARRINGTON HWY + WAIOMEA ST","latitude":21.343928,"longitude":-158.113835,"routeShortNames":[]},{"stopID":"661","name":"FARRINGTON HWY + LAALOA ST","latitude":21.341602,"longitude":-158.106584,"routeShortNames":[]},{"stopID":"662","name":"KAPOLEI PKWY + KAMOKILA BL","latitude":21.327845,"longitude":-158.088051,"routeShortNames":[]},{"stopID":"663","name":"KAMOKILA BL + ULUOHIA ST","latitude":21.331875,"longitude":-158.083937,"routeShortNames":[]},{"stopID":"665","name":"KAMOKILA BL + OPP NAU PL","latitude":21.334525,"longitude":-158.081398,"routeShortNames":[]},{"stopID":"666","name":"FARRINGTON HWY + KAPOWAI PL","latitude":21.337606,"longitude":-158.079239,"routeShortNames":[]},{"stopID":"667","name":"FARRINGTON HWY + KAPOUKA PL","latitude":21.338766,"longitude":-158.077671,"routeShortNames":[]},{"stopID":"668","name":"MAKAKILO DR + FARRINGTON HWY","latitude":21.340726,"longitude":-158.076469,"routeShortNames":[]},{"stopID":"669","name":"FARRINGTON HWY + OPP LEOKU ST","latitude":21.378293,"longitude":-158.022137,"routeShortNames":[]},{"stopID":"670","name":"FARRINGTON HWY + PUPUKAHI ST","latitude":21.380441,"longitude":-158.017946,"routeShortNames":[]},{"stopID":"671","name":"FARRINGTON HWY + PUPUPUHI ST","latitude":21.381328,"longitude":-158.016008,"routeShortNames":[]},{"stopID":"672","name":"FARRINGTON HWY + OPP ANIANI PL","latitude":21.38246,"longitude":-158.011859,"routeShortNames":[]},{"stopID":"677","name":"FARRINGTON HWY + OPP PAIWA ST","latitude":21.386363,"longitude":-157.998178,"routeShortNames":[]},{"stopID":"678","name":"FARRINGTON HWY + WAIPIO POINT ACCESS","latitude":21.38937,"longitude":-157.99464,"routeShortNames":[]},{"stopID":"679","name":"FARRINGTON HWY + WAIAWA RD","latitude":21.395486,"longitude":-157.98034,"routeShortNames":[]},{"stopID":"681","name":"KAMEHAMEHA HWY + OPP WAIMANO HOME RD","latitude":21.393602,"longitude":-157.969877,"routeShortNames":[]},{"stopID":"682","name":"KAMEHAMEHA HWY + OPP PUU MOMI ST","latitude":21.392783,"longitude":-157.96753,"routeShortNames":[]},{"stopID":"683","name":"KAMEHAMEHA HWY + OPP PUU PONI ST","latitude":21.391767,"longitude":-157.964808,"routeShortNames":[]},{"stopID":"687","name":"KAMEHAMEHA HWY + KALUAMOI PL","latitude":21.387793,"longitude":-157.956051,"routeShortNames":[]},{"stopID":"688","name":"KAMEHAMEHA HWY + OPP KAAHUMANU ST","latitude":21.387095,"longitude":-157.954538,"routeShortNames":[]},{"stopID":"689","name":"KAMEHAMEHA HWY + HEKAHA ST","latitude":21.38522,"longitude":-157.950438,"routeShortNames":[]},{"stopID":"692","name":"KAMEHAMEHA HWY + OPP PALI MOMI ST","latitude":21.38112,"longitude":-157.941458,"routeShortNames":[]},{"stopID":"693","name":"KAMEHAMEHA HWY + AIEA KAI PL","latitude":21.380206,"longitude":-157.939398,"routeShortNames":[]},{"stopID":"694","name":"KAMEHAMEHA HWY + OPP HONOMANU ST","latitude":21.37929,"longitude":-157.93742,"routeShortNames":[]},{"stopID":"695","name":"KAMEHAMEHA HWY + OPP SALT LAKE BL","latitude":21.371667,"longitude":-157.934006,"routeShortNames":[]},{"stopID":"696","name":"KAMEHAMEHA HWY + FORD ISLAND BL","latitude":21.369525,"longitude":-157.935292,"routeShortNames":[]},{"stopID":"697","name":"KAMEHAMEHA HWY + ARIZONA MEMORIAL PL","latitude":21.366863,"longitude":-157.93668,"routeShortNames":[]},{"stopID":"698","name":"KAMEHAMEHA HWY + ARIZONA ST","latitude":21.364256,"longitude":-157.93786,"routeShortNames":[]},{"stopID":"699","name":"KAMEHAMEHA HWY + MAKALAPA RD","latitude":21.351994,"longitude":-157.935488,"routeShortNames":[]},{"stopID":"700","name":"KAMEHAMEHA HWY + CENTER DR","latitude":21.349195,"longitude":-157.934864,"routeShortNames":[]},{"stopID":"701","name":"NIMITZ HWY + VALKENBURGH ST","latitude":21.339784,"longitude":-157.929893,"routeShortNames":[]},{"stopID":"702","name":"NIMITZ HWY + ELLIOTT ST","latitude":21.338527,"longitude":-157.925283,"routeShortNames":[]},{"stopID":"703","name":"NIMITZ HWY + AOLELE ST","latitude":21.33799,"longitude":-157.921509,"routeShortNames":[]},{"stopID":"704","name":"NIMITZ HWY + RODGERS BL","latitude":21.337417,"longitude":-157.917808,"routeShortNames":[]},{"stopID":"705","name":"NIMITZ HWY + PAIEA ST","latitude":21.336852,"longitude":-157.913973,"routeShortNames":[]},{"stopID":"706","name":"NIMITZ HWY + OHOHIA ST NEARSIDE","latitude":21.336365,"longitude":-157.910546,"routeShortNames":[]},{"stopID":"709","name":"NIMITZ HWY + LAGOON DR","latitude":21.334809,"longitude":-157.900346,"routeShortNames":[]},{"stopID":"710","name":"NANAKULI AVE + FARRINGTON HWY","latitude":21.379012,"longitude":-158.141988,"routeShortNames":[]},{"stopID":"711","name":"NANAKULI AVE + LEPEKA AVE","latitude":21.38046,"longitude":-158.140497,"routeShortNames":[]},{"stopID":"712","name":"NANAKULI AVE + MANO AVE","latitude":21.381392,"longitude":-158.139471,"routeShortNames":[]},{"stopID":"713","name":"NANAKULI AVE + KAUWAHI AVE","latitude":21.382308,"longitude":-158.138511,"routeShortNames":[]},{"stopID":"714","name":"NANAKULI AVE + KAWAO AVE","latitude":21.383251,"longitude":-158.137499,"routeShortNames":[]},{"stopID":"715","name":"NANAKULI AVE + PILILAAU AVE","latitude":21.384468,"longitude":-158.136207,"routeShortNames":[]},{"stopID":"716","name":"NANAKULI AVE + ILIMAPAPA PL","latitude":21.3853,"longitude":-158.134914,"routeShortNames":[]},{"stopID":"717","name":"NANAKULI AVE + OPP NANAKULI HIGH SCHOOL","latitude":21.385604,"longitude":-158.132774,"routeShortNames":[]},{"stopID":"718","name":"NANAKULI AVE + MAIAPOLUA PL","latitude":21.386285,"longitude":-158.131193,"routeShortNames":[]},{"stopID":"719","name":"NANAKULI AVE + UALAMAOLI PL","latitude":21.387935,"longitude":-158.129724,"routeShortNames":[]},{"stopID":"720","name":"NANAKULI AVE + MAIAIHOLENA PL","latitude":21.389898,"longitude":-158.129246,"routeShortNames":[]},{"stopID":"721","name":"NANAKULI AVE + HALEAKALA AVE","latitude":21.391295,"longitude":-158.129247,"routeShortNames":[]},{"stopID":"722","name":"HALEAKALA AVE + NANAKULI AVE","latitude":21.391742,"longitude":-158.13033,"routeShortNames":[]},{"stopID":"723","name":"HALEAKALA AVE + OPP NANAIKALA ST","latitude":21.390868,"longitude":-158.132372,"routeShortNames":[]},{"stopID":"724","name":"HALEAKALA AVE + MOKIAWE ST","latitude":21.38917,"longitude":-158.135424,"routeShortNames":[]},{"stopID":"725","name":"HALEAKALA AVE + OPUHE ST","latitude":21.386873,"longitude":-158.137309,"routeShortNames":[]},{"stopID":"726","name":"HALEAKALA AVE + OPP PILILAAU AVE","latitude":21.38621,"longitude":-158.138955,"routeShortNames":[]},{"stopID":"727","name":"HALEAKALA AVE + OPP KAUWAHI AVE","latitude":21.38533,"longitude":-158.14138,"routeShortNames":[]},{"stopID":"728","name":"HALEAKALA AVE + MANO AVE","latitude":21.385323,"longitude":-158.143913,"routeShortNames":[]},{"stopID":"729","name":"HALEAKALA AVE + FARRINGTON HWY","latitude":21.384459,"longitude":-158.145449,"routeShortNames":[]},{"stopID":"730","name":"HUIPU DR + OPP MAUNAOLU ST","latitude":21.477294,"longitude":-158.198325,"routeShortNames":[]},{"stopID":"731","name":"ALA HOLO LP + MAKAHA GOLF CLUB","latitude":21.475756,"longitude":-158.199613,"routeShortNames":[]},{"stopID":"732","name":"MAKAHA VALLEY RD + NOHOLIO RD","latitude":21.466737,"longitude":-158.200922,"routeShortNames":[]},{"stopID":"733","name":"MAKAHA VALLEY RD + KAULAWAHA RD","latitude":21.46513,"longitude":-158.202205,"routeShortNames":[]},{"stopID":"734","name":"MAKAHA VALLEY RD + KAULAILI RD","latitude":21.462163,"longitude":-158.204741,"routeShortNames":[]},{"stopID":"735","name":"MAKAHA VALLEY RD + FARRINGTON HWY","latitude":21.460344,"longitude":-158.20677,"routeShortNames":[]},{"stopID":"737","name":"S BERETANIA ST + ETERNAL FLAME","latitude":21.308153,"longitude":-157.856905,"routeShortNames":[]},{"stopID":"738","name":"VINEYARD BL + LILIHA ST","latitude":21.32028,"longitude":-157.862286,"routeShortNames":[]},{"stopID":"739","name":"VINEYARD BL + PALAMA ST","latitude":21.32286,"longitude":-157.864183,"routeShortNames":[]},{"stopID":"740","name":"VINEYARD BL + PALAMA ST","latitude":21.323811,"longitude":-157.865238,"routeShortNames":[]},{"stopID":"741","name":"VINEYARD BL + PUA LN","latitude":21.321964,"longitude":-157.863845,"routeShortNames":[]},{"stopID":"742","name":"VINEYARD BL + LILIHA ST","latitude":21.320504,"longitude":-157.862747,"routeShortNames":[]},{"stopID":"743","name":"ALAKEA ST + S KING ST","latitude":21.307916,"longitude":-157.860622,"routeShortNames":[]},{"stopID":"744","name":"ALAKEA ST + S HOTEL ST","latitude":21.309039,"longitude":-157.859169,"routeShortNames":[]},{"stopID":"745","name":"QUEEN EMMA ST + S BERETANIA ST","latitude":21.310186,"longitude":-157.857719,"routeShortNames":[]},{"stopID":"746","name":"QUEEN EMMA ST + VINEYARD ST","latitude":21.311129,"longitude":-157.85611,"routeShortNames":[]},{"stopID":"747","name":"QUEEN EMMA ST + VINEYARD BL","latitude":21.31194,"longitude":-157.854709,"routeShortNames":[]},{"stopID":"748","name":"LUSITANA ST + HUALI ST","latitude":21.313513,"longitude":-157.852702,"routeShortNames":[]},{"stopID":"750","name":"LUSITANA ST + OPP MILO LN","latitude":21.315448,"longitude":-157.851625,"routeShortNames":[]},{"stopID":"751","name":"LUSITANA ST + CONCORDIA ST","latitude":21.316387,"longitude":-157.85061,"routeShortNames":[]},{"stopID":"753","name":"LUSITANA ST + SAN ANTONIO AVE","latitude":21.317476,"longitude":-157.849284,"routeShortNames":[]},{"stopID":"754","name":"PAUOA RD + LUSITANA ST","latitude":21.319033,"longitude":-157.847784,"routeShortNames":[]},{"stopID":"755","name":"PAUOA RD + PUNA LN","latitude":21.318967,"longitude":-157.845387,"routeShortNames":[]},{"stopID":"756","name":"PAUOA RD + OPP NAMILIMILI ST","latitude":21.319324,"longitude":-157.843645,"routeShortNames":[]},{"stopID":"757","name":"PAUOA RD + OPP LAE ST","latitude":21.319675,"longitude":-157.842167,"routeShortNames":[]},{"stopID":"758","name":"PAUOA RD + OPP HIILAWE ST","latitude":21.320264,"longitude":-157.840429,"routeShortNames":[]},{"stopID":"759","name":"KANEALII ST + KAPALU ST","latitude":21.321661,"longitude":-157.840778,"routeShortNames":[]},{"stopID":"760","name":"KONA ST + OPP KEEAUMOKU ST (FS)","latitude":21.29187,"longitude":-157.842307,"routeShortNames":[]},{"stopID":"761","name":"ALA MOANA BL + ALA MOANA CENTER","latitude":21.289896,"longitude":-157.844534,"routeShortNames":[]},{"stopID":"763","name":"ALA MOANA BL + QUEEN ST","latitude":21.292008,"longitude":-157.85095,"routeShortNames":[]},{"stopID":"764","name":"ALA MOANA BL + KAMAKEE ST","latitude":21.292717,"longitude":-157.853266,"routeShortNames":[]},{"stopID":"765","name":"ALA MOANA BL + WARD VILLAGE","latitude":21.294131,"longitude":-157.855587,"routeShortNames":[]},{"stopID":"767","name":"WARD AVE + OPP HALEKAUWILA ST","latitude":21.296761,"longitude":-157.85533,"routeShortNames":[]},{"stopID":"768","name":"QUEEN ST + KAMANI ST","latitude":21.298387,"longitude":-157.854942,"routeShortNames":[]},{"stopID":"769","name":"QUEEN ST + COOKE ST","latitude":21.300123,"longitude":-157.856398,"routeShortNames":[]},{"stopID":"770","name":"QUEEN ST + EMILY ST","latitude":21.301507,"longitude":-157.857506,"routeShortNames":[]},{"stopID":"773","name":"E MANOA RD + LOWREY AVE","latitude":21.310569,"longitude":-157.808906,"routeShortNames":[]},{"stopID":"774","name":"E MANOA RD + LOI ST","latitude":21.311656,"longitude":-157.807278,"routeShortNames":[]},{"stopID":"775","name":"E MANOA RD + KAHALOA DR","latitude":21.313592,"longitude":-157.805221,"routeShortNames":[]},{"stopID":"776","name":"E MANOA RD + KAAMALIO DR","latitude":21.314393,"longitude":-157.804725,"routeShortNames":[]},{"stopID":"777","name":"E MANOA RD + KOLOMONA PL","latitude":21.315469,"longitude":-157.804082,"routeShortNames":[]},{"stopID":"778","name":"E MANOA RD + 3355","latitude":21.316241,"longitude":-157.803246,"routeShortNames":[]},{"stopID":"779","name":"E MANOA RD + OPP AKAKA PL","latitude":21.31702,"longitude":-157.801998,"routeShortNames":[]},{"stopID":"780","name":"E MANOA RD + ALANI DR","latitude":21.317628,"longitude":-157.800375,"routeShortNames":[]},{"stopID":"781","name":"ALANI DR + NANIHALE PL","latitude":21.318401,"longitude":-157.799932,"routeShortNames":[]},{"stopID":"782","name":"ALANI DR + 3593","latitude":21.319037,"longitude":-157.799367,"routeShortNames":[]},{"stopID":"783","name":"ALANI DR + 3663","latitude":21.320333,"longitude":-157.798875,"routeShortNames":[]},{"stopID":"784","name":"WOODLAWN DR + OPP WOODLAWN TERRACE PL","latitude":21.320119,"longitude":-157.79784,"routeShortNames":[]},{"stopID":"785","name":"WOODLAWN DR + 3586","latitude":21.319036,"longitude":-157.798071,"routeShortNames":[]},{"stopID":"786","name":"WOODLAWN DR + OPP SEAVIEW RISE","latitude":21.316758,"longitude":-157.798341,"routeShortNames":[]},{"stopID":"787","name":"WOODLAWN DR + ALANI DR","latitude":21.315232,"longitude":-157.799376,"routeShortNames":[]},{"stopID":"788","name":"ALANI DR + 3338","latitude":21.313837,"longitude":-157.799367,"routeShortNames":[]},{"stopID":"789","name":"ALANI DR + WAIPUNA RISE","latitude":21.313004,"longitude":-157.799691,"routeShortNames":[]},{"stopID":"790","name":"ALANI DR + PUHALA RISE","latitude":21.311324,"longitude":-157.80045,"routeShortNames":[]},{"stopID":"791","name":"PUHALA RISE + 3066","latitude":21.311799,"longitude":-157.801525,"routeShortNames":[]},{"stopID":"792","name":"WOODLAWN DR + LOWER RD","latitude":21.312787,"longitude":-157.803139,"routeShortNames":[]},{"stopID":"793","name":"WOODLAWN DR + KAHALOA DR","latitude":21.312003,"longitude":-157.803708,"routeShortNames":[]},{"stopID":"794","name":"KAHALOA DR + KAHIWA PL","latitude":21.312671,"longitude":-157.805015,"routeShortNames":[]},{"stopID":"795","name":"E MANOA RD + KAHALOA DR","latitude":21.312781,"longitude":-157.805956,"routeShortNames":[]},{"stopID":"797","name":"E MANOA RD + LOWREY AVE","latitude":21.310986,"longitude":-157.808352,"routeShortNames":[]},{"stopID":"798","name":"E MANOA RD + 2940","latitude":21.310438,"longitude":-157.809276,"routeShortNames":[]},{"stopID":"799","name":"E MANOA RD + HUAPALA ST","latitude":21.309854,"longitude":-157.810319,"routeShortNames":[]},{"stopID":"800","name":"E MANOA RD + OPP KEAMA PL","latitude":21.308958,"longitude":-157.811897,"routeShortNames":[]},{"stopID":"801","name":"E MANOA RD + OPP KOLOWALU ST","latitude":21.308194,"longitude":-157.813533,"routeShortNames":[]},{"stopID":"802","name":"E MANOA RD + OAHU AVE","latitude":21.308014,"longitude":-157.815578,"routeShortNames":[]},{"stopID":"803","name":"OAHU AVE + OPP UNIVERSITY AVE","latitude":21.307296,"longitude":-157.817068,"routeShortNames":[]},{"stopID":"804","name":"OAHU AVE + ARMSTRONG ST","latitude":21.306742,"longitude":-157.818472,"routeShortNames":[]},{"stopID":"805","name":"OAHU AVE + OPP KAALA ST","latitude":21.305345,"longitude":-157.819341,"routeShortNames":[]},{"stopID":"806","name":"OAHU AVE + KAMEHAMEHA AVE","latitude":21.303556,"longitude":-157.820414,"routeShortNames":[]},{"stopID":"808","name":"MAILE WAY + UNIVERSITY AVE","latitude":21.301841,"longitude":-157.820555,"routeShortNames":[]},{"stopID":"809","name":"UNIVERSITY AVE + VANCOUVER DR","latitude":21.301122,"longitude":-157.821101,"routeShortNames":[]},{"stopID":"810","name":"S BERETANIA ST + KAIALIU ST","latitude":21.293083,"longitude":-157.823295,"routeShortNames":[]},{"stopID":"811","name":"S BERETANIA ST + ISENBERG ST","latitude":21.29473,"longitude":-157.824636,"routeShortNames":[]},{"stopID":"813","name":"S BERETANIA ST + MCCULLY ST","latitude":21.296429,"longitude":-157.828962,"routeShortNames":[]},{"stopID":"814","name":"S BERETANIA ST + ARTESIAN ST","latitude":21.297411,"longitude":-157.831628,"routeShortNames":[]},{"stopID":"816","name":"S BERETANIA ST + PUNAHOU ST","latitude":21.298437,"longitude":-157.834512,"routeShortNames":[]},{"stopID":"817","name":"KEEAUMOKU ST + YOUNG ST","latitude":21.299407,"longitude":-157.839892,"routeShortNames":[]},{"stopID":"818","name":"KEEAUMOKU ST + S KING ST","latitude":21.298062,"longitude":-157.840462,"routeShortNames":[]},{"stopID":"819","name":"KEEAUMOKU ST + RYCROFT ST","latitude":21.296283,"longitude":-157.841188,"routeShortNames":[]},{"stopID":"820","name":"KEEAUMOKU ST + OPP KANUNU ST","latitude":21.295021,"longitude":-157.841766,"routeShortNames":[]},{"stopID":"821","name":"KEEAUMOKU ST + KAPIOLANI BL","latitude":21.293318,"longitude":-157.842442,"routeShortNames":[]},{"stopID":"822","name":"KANEALII AVE + KOALELE ST","latitude":21.321409,"longitude":-157.841573,"routeShortNames":[]},{"stopID":"823","name":"KANEALII AVE + HUANU ST","latitude":21.320968,"longitude":-157.842931,"routeShortNames":[]},{"stopID":"824","name":"KANEALII AVE + OPP PAKOHANA ST","latitude":21.320614,"longitude":-157.844405,"routeShortNames":[]},{"stopID":"825","name":"KANEALII AVE + STAR RD","latitude":21.320391,"longitude":-157.845825,"routeShortNames":[]},{"stopID":"826","name":"KANEALII AVE + OPP KAIA ST","latitude":21.32011,"longitude":-157.847176,"routeShortNames":[]},{"stopID":"827","name":"KANEALII AVE + PAUOA RD","latitude":21.319595,"longitude":-157.847928,"routeShortNames":[]},{"stopID":"828","name":"LUSITANA ST + OPP SAN ANTONIO AVE","latitude":21.317392,"longitude":-157.84953,"routeShortNames":[]},{"stopID":"829","name":"LUSITANA ST + KUAKINI ST","latitude":21.316552,"longitude":-157.850524,"routeShortNames":[]},{"stopID":"830","name":"LUSITANA ST + MILO LN","latitude":21.315536,"longitude":-157.851649,"routeShortNames":[]},{"stopID":"832","name":"LUSITANA ST + SCHOOL ST","latitude":21.313608,"longitude":-157.852759,"routeShortNames":[]},{"stopID":"833","name":"PALI HWY + S BERETANIA ST","latitude":21.311115,"longitude":-157.858551,"routeShortNames":[]},{"stopID":"834","name":"BISHOP ST + S HOTEL ST","latitude":21.309713,"longitude":-157.859938,"routeShortNames":[]},{"stopID":"835","name":"BISHOP ST + S KING ST","latitude":21.308295,"longitude":-157.861895,"routeShortNames":[]},{"stopID":"836","name":"QUEEN ST + ALAKEA ST","latitude":21.30722,"longitude":-157.862487,"routeShortNames":[]},{"stopID":"837","name":"QUEEN ST + RICHARDS ST","latitude":21.306324,"longitude":-157.861718,"routeShortNames":[]},{"stopID":"838","name":"QUEEN ST + OPP MILILANI ST","latitude":21.305161,"longitude":-157.86071,"routeShortNames":[]},{"stopID":"839","name":"QUEEN ST + PUNCHBOWL ST","latitude":21.303967,"longitude":-157.859678,"routeShortNames":[]},{"stopID":"840","name":"QUEEN ST + SOUTH ST","latitude":21.302575,"longitude":-157.858463,"routeShortNames":[]},{"stopID":"841","name":"QUEEN ST + KEAWE ST","latitude":21.301437,"longitude":-157.857549,"routeShortNames":[]},{"stopID":"842","name":"QUEEN ST + COOKE ST","latitude":21.300404,"longitude":-157.856724,"routeShortNames":[]},{"stopID":"843","name":"QUEEN ST + KAMANI ST","latitude":21.298317,"longitude":-157.854984,"routeShortNames":[]},{"stopID":"844","name":"WARD AVE + HALEKAUWILA ST","latitude":21.296805,"longitude":-157.855399,"routeShortNames":[]},{"stopID":"845","name":"AUAHI ST + WARD AVE","latitude":21.294596,"longitude":-157.854804,"routeShortNames":[]},{"stopID":"846","name":"AUAHI ST + KAMAKEE ST","latitude":21.293232,"longitude":-157.852533,"routeShortNames":[]},{"stopID":"847","name":"KONA ST + OPP KONA IKI ST (NS)","latitude":21.293009,"longitude":-157.844926,"routeShortNames":[]},{"stopID":"848","name":"MAHUKONA ST + KAPIOLANI BL","latitude":21.291762,"longitude":-157.839869,"routeShortNames":[]},{"stopID":"849","name":"KAHEKA ST + MAKALOA ST","latitude":21.293672,"longitude":-157.839172,"routeShortNames":[]},{"stopID":"850","name":"KAHEKA ST + OPP RYCROFT ST","latitude":21.295692,"longitude":-157.83889,"routeShortNames":[]},{"stopID":"851","name":"KAHEKA ST + S KING ST","latitude":21.297506,"longitude":-157.83808,"routeShortNames":[]},{"stopID":"852","name":"S KING ST + PUNAHOU ST","latitude":21.297026,"longitude":-157.836241,"routeShortNames":[]},{"stopID":"854","name":"S KING ST + HAUOLI ST","latitude":21.295746,"longitude":-157.832653,"routeShortNames":[]},{"stopID":"856","name":"S KING ST + MCCULLY ST","latitude":21.294719,"longitude":-157.829805,"routeShortNames":[]},{"stopID":"858","name":"S KING ST + MAKAHIKI WAY","latitude":21.293972,"longitude":-157.827699,"routeShortNames":[]},{"stopID":"859","name":"S KING ST + ISENBERG ST","latitude":21.293132,"longitude":-157.825366,"routeShortNames":[]},{"stopID":"860","name":"DOLE ST + LOWER CAMPUS RD","latitude":21.296737,"longitude":-157.819197,"routeShortNames":[]},{"stopID":"861","name":"DOLE ST + UH LAW SCHOOL","latitude":21.296676,"longitude":-157.817249,"routeShortNames":[]},{"stopID":"862","name":"EAST-WEST RD + DOLE ST","latitude":21.296972,"longitude":-157.815054,"routeShortNames":[]},{"stopID":"863","name":"EAST-WEST RD + JEFFERSON HALL","latitude":21.298923,"longitude":-157.814464,"routeShortNames":[]},{"stopID":"864","name":"MAILE WAY + EAST-WEST RD","latitude":21.301472,"longitude":-157.815187,"routeShortNames":[]},{"stopID":"865","name":"MAILE WAY + UNIVERSITY AVE","latitude":21.301425,"longitude":-157.819933,"routeShortNames":[]},{"stopID":"868","name":"OAHU AVE + KAALA ST","latitude":21.30497,"longitude":-157.819494,"routeShortNames":[]},{"stopID":"869","name":"OAHU AVE + ARMSTRONG ST","latitude":21.306444,"longitude":-157.818601,"routeShortNames":[]},{"stopID":"870","name":"OAHU AVE + UNIVERSITY AVE","latitude":21.3072,"longitude":-157.817188,"routeShortNames":[]},{"stopID":"871","name":"OAHU AVE + E MANOA RD","latitude":21.307761,"longitude":-157.81634,"routeShortNames":[]},{"stopID":"872","name":"E MANOA RD + KOLOWALU ST","latitude":21.308079,"longitude":-157.813604,"routeShortNames":[]},{"stopID":"873","name":"E MANOA RD + KEAMA PL","latitude":21.308855,"longitude":-157.811928,"routeShortNames":[]},{"stopID":"874","name":"UNIVERSITY AVE + OPP METCALF ST","latitude":21.299291,"longitude":-157.821057,"routeShortNames":[]},{"stopID":"876","name":"SARATOGA RD + KALAKAUA AVE","latitude":21.281777,"longitude":-157.831175,"routeShortNames":[]},{"stopID":"877","name":"KALIA RD + SARATOGA RD","latitude":21.280406,"longitude":-157.833628,"routeShortNames":[]},{"stopID":"878","name":"KALIA RD + MALUHIA ST","latitude":21.2829,"longitude":-157.834986,"routeShortNames":[]},{"stopID":"879","name":"ALA MOANA BL + OPP KAHANAMOKU ST","latitude":21.284744,"longitude":-157.836763,"routeShortNames":[]},{"stopID":"880","name":"ALA MOANA BL + HOBRON LN","latitude":21.285406,"longitude":-157.83848,"routeShortNames":[]},{"stopID":"882","name":"ALA MOANA BL + ATKINSON DR","latitude":21.288702,"longitude":-157.840622,"routeShortNames":[]},{"stopID":"883","name":"ALA MOANA BL + OPP ATKINSON DR","latitude":21.288729,"longitude":-157.841005,"routeShortNames":[]},{"stopID":"884","name":"ALA MOANA BL + HOBRON LN","latitude":21.285146,"longitude":-157.838608,"routeShortNames":[]},{"stopID":"885","name":"ALA MOANA BL + KAHANAMOKU ST","latitude":21.284658,"longitude":-157.838144,"routeShortNames":[]},{"stopID":"886","name":"KALIA RD + PAOA PL","latitude":21.283179,"longitude":-157.835354,"routeShortNames":[]},{"stopID":"888","name":"KALIA RD + SARATOGA RD","latitude":21.279508,"longitude":-157.833144,"routeShortNames":[]},{"stopID":"889","name":"SARATOGA RD + KALAKAUA AVE","latitude":21.281227,"longitude":-157.831361,"routeShortNames":[]},{"stopID":"891","name":"ALA MOANA BL + WARD AVE","latitude":21.295131,"longitude":-157.858071,"routeShortNames":[]},{"stopID":"892","name":"ALA MOANA BL + KOULA ST","latitude":21.295917,"longitude":-157.859741,"routeShortNames":[]},{"stopID":"893","name":"ALA MOANA BL + CORAL ST","latitude":21.297572,"longitude":-157.861726,"routeShortNames":[]},{"stopID":"894","name":"ALA MOANA BL + SOUTH ST","latitude":21.300207,"longitude":-157.863051,"routeShortNames":[]},{"stopID":"895","name":"ALA MOANA BL + PUNCHBOWL ST","latitude":21.303039,"longitude":-157.863281,"routeShortNames":[]},{"stopID":"896","name":"ALA MOANA BL + RICHARDS ST","latitude":21.305263,"longitude":-157.862603,"routeShortNames":[]},{"stopID":"897","name":"ALAKEA ST + NIMITZ HWY","latitude":21.306487,"longitude":-157.862616,"routeShortNames":[]},{"stopID":"899","name":"IWILEI RD + KUWILI ST","latitude":21.315683,"longitude":-157.866083,"routeShortNames":[]},{"stopID":"900","name":"IWILEI RD + SUMNER ST","latitude":21.315991,"longitude":-157.868159,"routeShortNames":[]},{"stopID":"901","name":"IWILEI RD + PACIFIC ST","latitude":21.316095,"longitude":-157.870852,"routeShortNames":[]},{"stopID":"902","name":"PACIFIC ST + IWILEI RD","latitude":21.314991,"longitude":-157.871583,"routeShortNames":[]},{"stopID":"904","name":"NIMITZ HWY + ALAKAWA ST","latitude":21.317551,"longitude":-157.875378,"routeShortNames":[]},{"stopID":"905","name":"NIMITZ HWY + OPP PIER 36","latitude":21.31917,"longitude":-157.876243,"routeShortNames":[]},{"stopID":"906","name":"NIMITZ HWY + WAIAKAMILO RD","latitude":21.321927,"longitude":-157.87958,"routeShortNames":[]},{"stopID":"907","name":"NIMITZ HWY + OPP LIBBY ST","latitude":21.323286,"longitude":-157.880902,"routeShortNames":[]},{"stopID":"908","name":"NIMITZ HWY + KALIHI ST","latitude":21.324525,"longitude":-157.88225,"routeShortNames":[]},{"stopID":"909","name":"NIMITZ HWY + MOKAUEA ST","latitude":21.326035,"longitude":-157.884016,"routeShortNames":[]},{"stopID":"911","name":"NIMITZ HWY + OPP SAND ISLAND ACCESS","latitude":21.328276,"longitude":-157.88626,"routeShortNames":[]},{"stopID":"925","name":"VANDENBERG BL + FREEDOM AVE","latitude":21.341724,"longitude":-157.94769,"routeShortNames":[]},{"stopID":"926","name":"FOX BL + 16TH AVE","latitude":21.343752,"longitude":-157.950895,"routeShortNames":[]},{"stopID":"927","name":"VICKERS AVE + FOX AVE","latitude":21.34286,"longitude":-157.952605,"routeShortNames":[]},{"stopID":"928","name":"VICKERS AVE + OPP G ST","latitude":21.340488,"longitude":-157.955136,"routeShortNames":[]},{"stopID":"929","name":"VICKERS AVE + SCOTT CIR (MAUKA)","latitude":21.339591,"longitude":-157.956039,"routeShortNames":[]},{"stopID":"930","name":"VICKERS AVE + ATTERBURY CIR (MAKAI)","latitude":21.337532,"longitude":-157.95825,"routeShortNames":[]},{"stopID":"931","name":"B ST + VICKERS ST","latitude":21.333644,"longitude":-157.961045,"routeShortNames":[]},{"stopID":"934","name":"AMC TERMINAL","latitude":21.332126,"longitude":-157.95085,"routeShortNames":[]},{"stopID":"938","name":"IWILEI RD + N KING ST","latitude":21.314926,"longitude":-157.864439,"routeShortNames":[]},{"stopID":"940","name":"NIMITZ HWY + MOKAUEA ST","latitude":21.325219,"longitude":-157.883421,"routeShortNames":[]},{"stopID":"941","name":"NIMITZ HWY + KALIHI ST","latitude":21.323775,"longitude":-157.881766,"routeShortNames":[]},{"stopID":"942","name":"NIMITZ HWY + WAIAKAMILO RD","latitude":21.321356,"longitude":-157.879346,"routeShortNames":[]},{"stopID":"943","name":"NIMITZ HWY + PIER 36","latitude":21.318647,"longitude":-157.876215,"routeShortNames":[]},{"stopID":"945","name":"PACIFIC ST + NIMITZ HWY","latitude":21.313473,"longitude":-157.870681,"routeShortNames":[]},{"stopID":"946","name":"PACIFIC ST + IWILEI RD","latitude":21.314992,"longitude":-157.871514,"routeShortNames":[]},{"stopID":"947","name":"IWILEI RD + PACIFIC ST","latitude":21.316217,"longitude":-157.870453,"routeShortNames":[]},{"stopID":"948","name":"IWILEI RD + SUMNER ST","latitude":21.315927,"longitude":-157.868183,"routeShortNames":[]},{"stopID":"949","name":"IWILEI RD + KUWILI ST","latitude":21.315679,"longitude":-157.866229,"routeShortNames":[]},{"stopID":"950","name":"PUNCHBOWL ST + HALEKAUWILA ST","latitude":21.303755,"longitude":-157.86081,"routeShortNames":[]},{"stopID":"951","name":"ALA MOANA BL + OPP SOUTH ST","latitude":21.299622,"longitude":-157.863087,"routeShortNames":[]},{"stopID":"952","name":"ALA MOANA BL + CORAL ST","latitude":21.297474,"longitude":-157.861758,"routeShortNames":[]},{"stopID":"953","name":"ALA MOANA BL + AHUI ST","latitude":21.295348,"longitude":-157.85873,"routeShortNames":[]},{"stopID":"954","name":"ALA MOANA BL + WARD AVE","latitude":21.294673,"longitude":-157.857176,"routeShortNames":[]},{"stopID":"955","name":"ALA MOANA BL + OPP KAMAKEE ST","latitude":21.292731,"longitude":-157.853753,"routeShortNames":[]},{"stopID":"956","name":"ALA MOANA BL + OPP QUEEN ST","latitude":21.291783,"longitude":-157.85076,"routeShortNames":[]},{"stopID":"957","name":"MAMIYA AVE + OMALLEY BL","latitude":21.334437,"longitude":-157.952178,"routeShortNames":[]},{"stopID":"958","name":"F ST + VICKERS AVE","latitude":21.338062,"longitude":-157.956219,"routeShortNames":[]},{"stopID":"959","name":"VICKERS AVE + OPP SCOTT CIR (MAUKA)","latitude":21.339427,"longitude":-157.956121,"routeShortNames":[]},{"stopID":"960","name":"VICKERS AVE + G ST","latitude":21.340762,"longitude":-157.954752,"routeShortNames":[]},{"stopID":"961","name":"VICKERS AVE + H ST","latitude":21.342145,"longitude":-157.953278,"routeShortNames":[]},{"stopID":"962","name":"FOX BL + OPP 15TH ST","latitude":21.343438,"longitude":-157.951174,"routeShortNames":[]},{"stopID":"963","name":"VANDENBERG BL + FREEDOM AVE","latitude":21.34228,"longitude":-157.94864,"routeShortNames":[]},{"stopID":"974","name":"NIMITZ HWY + KEEHI LAGOON PARK","latitude":21.334083,"longitude":-157.896223,"routeShortNames":[]},{"stopID":"975","name":"NIMITZ HWY + SAND ISLAND ACCESS RD","latitude":21.329059,"longitude":-157.886957,"routeShortNames":[]},{"stopID":"976","name":"HICKAM AFB MAIN GATE","latitude":21.341322,"longitude":-157.943422,"routeShortNames":[]},{"stopID":"977","name":"KAONOHI ST + OPP MOANALUA LP","latitude":21.384216,"longitude":-157.945196,"routeShortNames":[]},{"stopID":"978","name":"KAONOHI ST + MOANALUA RD","latitude":21.385802,"longitude":-157.942691,"routeShortNames":[]},{"stopID":"979","name":"MOANALUA RD + OPP UALO ST","latitude":21.385687,"longitude":-157.940184,"routeShortNames":[]},{"stopID":"980","name":"MOANALUA RD + 98-1059","latitude":21.384682,"longitude":-157.938239,"routeShortNames":[]},{"stopID":"981","name":"PALI MOMI ST + HAUKAPILA RD","latitude":21.382374,"longitude":-157.939496,"routeShortNames":[]},{"stopID":"983","name":"SINCLAIR CIRCLE","latitude":21.297892,"longitude":-157.820754,"routeShortNames":[]},{"stopID":"984","name":"KAPIOLANI BL + ISENBERG ST","latitude":21.287834,"longitude":-157.827305,"routeShortNames":[]},{"stopID":"985","name":"KAPIOLANI BL + OPP ATKINSON DR","latitude":21.290967,"longitude":-157.83763,"routeShortNames":[]},{"stopID":"986","name":"KAPIOLANI BL + KEEAUMOKU ST","latitude":21.292825,"longitude":-157.841822,"routeShortNames":[]},{"stopID":"987","name":"N KING ST + LILIHA ST","latitude":21.318791,"longitude":-157.864932,"routeShortNames":[]},{"stopID":"988","name":"N KING ST + KOKEA ST","latitude":21.324574,"longitude":-157.86865,"routeShortNames":[]},{"stopID":"989","name":"N KING ST + KALIHI ST","latitude":21.330782,"longitude":-157.875033,"routeShortNames":[]},{"stopID":"990","name":"N KING ST + GULICK AVE","latitude":21.333332,"longitude":-157.879068,"routeShortNames":[]},{"stopID":"991","name":"KAONOHI ST + OPP WESTRIDGE CENTER","latitude":21.38461,"longitude":-157.944566,"routeShortNames":[]},{"stopID":"993","name":"N KING ST + GULICK AVE","latitude":21.33298,"longitude":-157.878942,"routeShortNames":[]},{"stopID":"994","name":"N KING ST + KALIHI ST","latitude":21.330742,"longitude":-157.875131,"routeShortNames":[]},{"stopID":"995","name":"N KING ST + KOKEA ST","latitude":21.324317,"longitude":-157.868601,"routeShortNames":[]},{"stopID":"996","name":"N KING ST + DILLINGHAM BL","latitude":21.318734,"longitude":-157.864991,"routeShortNames":[]},{"stopID":"997","name":"N KING ST + MAUNAKEA ST","latitude":21.311937,"longitude":-157.863756,"routeShortNames":[]},{"stopID":"999","name":"KAPIOLANI BL + KEEAUMOKU ST","latitude":21.293347,"longitude":-157.843215,"routeShortNames":[]},{"stopID":"1000","name":"KAPIOLANI BL + ATKINSON DR","latitude":21.290996,"longitude":-157.837915,"routeShortNames":[]},{"stopID":"1003","name":"ALAPAI TRANSIT CENTER (UNLOADING)","latitude":21.303378,"longitude":-157.852556,"routeShortNames":[]},{"stopID":"1016","name":"KAPIOLANI BL + MCCULLY ST","latitude":21.289386,"longitude":-157.831987,"routeShortNames":[]},{"stopID":"1017","name":"LEOKU ST + FARRINGTON HWY","latitude":21.379222,"longitude":-158.024145,"routeShortNames":[]},{"stopID":"1018","name":"N KING ST + PALAMA ST","latitude":21.321873,"longitude":-157.867204,"routeShortNames":[]},{"stopID":"1020","name":"N KING ST + OPP UMI ST","latitude":21.33504,"longitude":-157.88098,"routeShortNames":[]},{"stopID":"1021","name":"FARRINGTON HWY + MOKUOLA ST","latitude":21.384549,"longitude":-158.00212,"routeShortNames":[]},{"stopID":"1024","name":"FARRINGTON HWY + OPP MOKUOLA ST","latitude":21.384386,"longitude":-158.001857,"routeShortNames":[]},{"stopID":"1025","name":"N KING ST + UMI ST","latitude":21.3349,"longitude":-157.880928,"routeShortNames":[]},{"stopID":"1027","name":"N KING ST + OPP PALAMA ST","latitude":21.321577,"longitude":-157.867078,"routeShortNames":[]},{"stopID":"1032","name":"ULUNE ST + KAHUAPAANI ST","latitude":21.373296,"longitude":-157.920089,"routeShortNames":[]},{"stopID":"1033","name":"ULUNE ST + HALAWA HEIGHTS RD","latitude":21.374295,"longitude":-157.92105,"routeShortNames":[]},{"stopID":"1034","name":"ULUNE ST + PUALAA ST","latitude":21.376828,"longitude":-157.922095,"routeShortNames":[]},{"stopID":"1035","name":"ALIIPOE DR + ULUNE ST","latitude":21.378017,"longitude":-157.924234,"routeShortNames":[]},{"stopID":"1036","name":"ALIIPOE DR + HOKEA ST","latitude":21.378736,"longitude":-157.922867,"routeShortNames":[]},{"stopID":"1037","name":"ALIIPOE DR + 99-631","latitude":21.379631,"longitude":-157.921133,"routeShortNames":[]},{"stopID":"1038","name":"ALIIPOE DR + PAIHI ST","latitude":21.380072,"longitude":-157.919303,"routeShortNames":[]},{"stopID":"1039","name":"ALIIPOE DR + HALAWA HEIGHTS RD","latitude":21.378766,"longitude":-157.91572,"routeShortNames":[]},{"stopID":"1040","name":"HALAWA HEIGHTS RD + IWAIWA ST","latitude":21.37721,"longitude":-157.916622,"routeShortNames":[]},{"stopID":"1041","name":"HALAWA HEIGHTS RD + HULUMANU ST","latitude":21.375242,"longitude":-157.918243,"routeShortNames":[]},{"stopID":"1042","name":"KAHUAPAANI ST + ULUNE ST","latitude":21.37402,"longitude":-157.919579,"routeShortNames":[]},{"stopID":"1044","name":"FARRINGTON HWY + UPENA ST","latitude":21.474433,"longitude":-158.218356,"routeShortNames":[]},{"stopID":"1049","name":"WAIPAHU DEPOT RD + FARRINGTON HWY","latitude":21.384119,"longitude":-158.006626,"routeShortNames":[]},{"stopID":"1050","name":"FARRINGTON HWY + OPP OLD FORT WEAVER","latitude":21.374475,"longitude":-158.032088,"routeShortNames":[]},{"stopID":"1051","name":"FARRINGTON HWY + 91-1440","latitude":21.372478,"longitude":-158.043842,"routeShortNames":[]},{"stopID":"1053","name":"FARRINGTON HWY + OPP KAPOLEI GOLF COURSE","latitude":21.3492,"longitude":-158.064955,"routeShortNames":[]},{"stopID":"1054","name":"FARRINGTON HWY + OPP KOWELO AVE","latitude":21.347128,"longitude":-158.066916,"routeShortNames":[]},{"stopID":"1055","name":"FARRINGTON HWY + NOULU ST","latitude":21.345344,"longitude":-158.068716,"routeShortNames":[]},{"stopID":"1056","name":"FARRINGTON HWY + OPP KEALANANI DR","latitude":21.341844,"longitude":-158.073047,"routeShortNames":[]},{"stopID":"1057","name":"FARRINGTON HWY + FORT BARRETTE RD","latitude":21.340686,"longitude":-158.074694,"routeShortNames":[]},{"stopID":"1058","name":"FARRINGTON HWY + PAPAIAULU AVE","latitude":21.345266,"longitude":-158.068689,"routeShortNames":[]},{"stopID":"1059","name":"FARRINGTON HWY + KOWELO AVE","latitude":21.347578,"longitude":-158.066389,"routeShortNames":[]},{"stopID":"1060","name":"FARRINGTON HWY + KAPOLEI GOLF COURSE","latitude":21.34934,"longitude":-158.064721,"routeShortNames":[]},{"stopID":"1061","name":"FARRINGTON HWY + OPP MAKAKILO QUARRY","latitude":21.35404,"longitude":-158.062188,"routeShortNames":[]},{"stopID":"1062","name":"FARRINGTON HWY + OPP 91-1440","latitude":21.372449,"longitude":-158.04375,"routeShortNames":[]},{"stopID":"1063","name":"WAIPAHU DEPOT RD + HIKIMOE ST","latitude":21.384352,"longitude":-158.006632,"routeShortNames":[]},{"stopID":"1065","name":"SOUTH ST + AUAHI ST","latitude":21.300293,"longitude":-157.861842,"routeShortNames":[]},{"stopID":"1066","name":"SOUTH ST + KAWAIAHAO ST","latitude":21.302754,"longitude":-157.857145,"routeShortNames":[]},{"stopID":"1067","name":"FORT WEAVER RD + LAULAUNUI ST","latitude":21.36934,"longitude":-158.026227,"routeShortNames":[]},{"stopID":"1068","name":"FORT WEAVER RD + OPP AAWA DR","latitude":21.359561,"longitude":-158.029595,"routeShortNames":[]},{"stopID":"1069","name":"FORT WEAVER RD + EWA FAMILY CENTER","latitude":21.353842,"longitude":-158.02862,"routeShortNames":[]},{"stopID":"1070","name":"FORT WEAVER RD + KARAYAN ST","latitude":21.349055,"longitude":-158.027308,"routeShortNames":[]},{"stopID":"1071","name":"FORT WEAVER RD + RENTON RD","latitude":21.347106,"longitude":-158.026789,"routeShortNames":[]},{"stopID":"1072","name":"FORT WEAVER RD + KOLOWAKA DR","latitude":21.341073,"longitude":-158.025136,"routeShortNames":[]},{"stopID":"1073","name":"FORT WEAVER RD + GEIGER RD","latitude":21.33469,"longitude":-158.023428,"routeShortNames":[]},