[{"stopID":"5","name":"LAGOON DR + IOLANA PL","latitude":21.321687,"longitude":-157.907687,"routeShortNames":["317"]},{"stopID":"6","name":"LAGOON DR + KAPALULU PL","latitude":21.319702,"longitude":-157.910531,"routeShortNames":["317"]},{"stopID":"7","name":"LAGOON DR + MOKUEA PL","latitude":21.318565,"longitude":-157.912124,"routeShortNames":["317"]},{"stopID":"8","name":"LAGOON DR + KEEHI PL","latitude":21.316639,"longitude":-157.914877,"routeShortNames":["317"]},{"stopID":"9","name":"LAGOON DR + IAKO PL","latitude":21.313973,"longitude":-157.918638,"routeShortNames":["317"]},{"stopID":"11","name":"PALEKONA ST + LAGOON DR","latitude":21.314342,"longitude":-157.92111,"routeShortNames":["317"]},{"stopID":"12","name":"PAKI AVE + PONI MOI RD","latitude":21.261225,"longitude":-157.818181,"routeShortNames":["14","200"]},{"stopID":"13","name":"PAKI AVE + DIAMOND HEAD TENNIS CTR","latitude":21.263524,"longitude":-157.818523,"routeShortNames":["14","200"]},{"stopID":"14","name":"PAKI AVE + NOELA ST","latitude":21.266265,"longitude":-157.816826,"routeShortNames":["14","200"]},{"stopID":"15","name":"PAKI AVE + PAKI PLAYGROUND","latitude":21.267915,"longitude":-157.816033,"routeShortNames":["14","200"]},{"stopID":"16","name":"PAKI AVE + MONSARRAT AVE","latitude":21.270149,"longitude":-157.815989,"routeShortNames":["14","2","200","42","8"]},{"stopID":"17","name":"PAKI AVE + KAPAHULU AVE","latitude":21.272237,"longitude":-157.816457,"routeShortNames":["14","2","200","42","8"]},{"stopID":"18","name":"KAPAHULU AVE + ALA WAI BL","latitude":21.273013,"longitude":-157.8171,"routeShortNames":["13","14","2","200","2L","42","8"]},{"stopID":"19","name":"KAPAHULU AVE + KUHIO AVE","latitude":21.272019,"longitude":-157.819893,"routeShortNames":["13","14","2","200","2L","42","8","E"]},{"stopID":"20","name":"KUHIO AVE + PAOAKALANI AVE","latitude":21.273741,"longitude":-157.82115,"routeShortNames":["13","2","2L","42","8"]},{"stopID":"22","name":"KUHIO AVE + LILIUOKALANI AVE","latitude":21.27579,"longitude":-157.822651,"routeShortNames":["13","2","42","8","E"]},{"stopID":"23","name":"KUHIO AVE + KAIULANI AVE","latitude":21.276933,"longitude":-157.823715,"routeShortNames":["13","2","42","8"]},{"stopID":"24","name":"KUHIO AVE + WALINA ST","latitude":21.278309,"longitude":-157.82481,"routeShortNames":["13","2","2L","42","8","E"]},{"stopID":"26","name":"KUHIO AVE + SEASIDE AVE","latitude":21.28041,"longitude":-157.827239,"routeShortNames":["13","2","42","8","E"]},{"stopID":"27","name":"KUHIO AVE + LEWERS ST","latitude":21.281378,"longitude":-157.828344,"routeShortNames":["13","2","2L","42","8","E"]},{"stopID":"28","name":"KUHIO AVE + LAUNIU ST","latitude":21.282357,"longitude":-157.829462,"routeShortNames":["W LINE"]},{"stopID":"29","name":"KUHIO AVE + NAMAHANA ST","latitude":21.284154,"longitude":-157.831603,"routeShortNames":["13","2","8","E"]},{"stopID":"30","name":"KALAKAUA AVE + PAU ST","latitude":21.285485,"longitude":-157.832792,"routeShortNames":["13","2","8","E"]},{"stopID":"31","name":"KALAKAUA AVE + MCCULLY ST","latitude":21.287028,"longitude":-157.833662,"routeShortNames":["13","2","8"]},{"stopID":"33","name":"KALAKAUA AVE + KAPIOLANI BL","latitude":21.290046,"longitude":-157.83534,"routeShortNames":["2"]},{"stopID":"34","name":"KALAKAUA AVE + KAPIOLANI BL","latitude":21.291288,"longitude":-157.835917,"routeShortNames":["2","2L"]},{"stopID":"35","name":"KALAKAUA AVE + OPP MAKALOA ST","latitude":21.293146,"longitude":-157.836688,"routeShortNames":["2"]},{"stopID":"36","name":"KALAKAUA AVE + PHILIP ST","latitude":21.294931,"longitude":-157.83678,"routeShortNames":["2"]},{"stopID":"37","name":"KALAKAUA AVE + S KING ST","latitude":21.296872,"longitude":-157.836829,"routeShortNames":["2"]},{"stopID":"38","name":"S BERETANIA ST + OPP KALAKAUA AVE","latitude":21.299544,"longitude":-157.837549,"routeShortNames":["1","1L","2","2L","5","6"]},{"stopID":"39","name":"S BERETANIA ST + KEEAUMOKU ST","latitude":21.300116,"longitude":-157.839146,"routeShortNames":["1","2"]},{"stopID":"40","name":"S BERETANIA ST + PIIKOI ST","latitude":21.300937,"longitude":-157.841382,"routeShortNames":["1","2"]},{"stopID":"41","name":"S BERETANIA ST + PENSACOLA ST","latitude":21.302221,"longitude":-157.844905,"routeShortNames":["1","1L","2","2L"]},{"stopID":"43","name":"S BERETANIA ST + WARD AVE","latitude":21.303833,"longitude":-157.849322,"routeShortNames":["1","2"]},{"stopID":"44","name":"S BERETANIA ST + ALAPAI ST","latitude":21.305022,"longitude":-157.852567,"routeShortNames":["1","1L","2","2L","4"]},{"stopID":"45","name":"S BERETANIA ST + PUNCHBOWL ST","latitude":21.307244,"longitude":-157.856142,"routeShortNames":["1","13","1L","2","2L","3","40","42","51","52","53","54","80","81","82","83","84","84A","85","86","87","88","89","90","91","91A","92","93","94","95","96","96A","97","98","98A","C","E"]},{"stopID":"46","name":"S HOTEL ST + ALAKEA ST","latitude":21.308713,"longitude":-157.859373,"routeShortNames":["1","13","2","3","E"]},{"stopID":"47","name":"S HOTEL ST + BISHOP ST","latitude":21.309495,"longitude":-157.860523,"routeShortNames":["1","13","151","2","3"]},{"stopID":"48","name":"S HOTEL ST + BETHEL ST","latitude":21.310442,"longitude":-157.861494,"routeShortNames":["1","13","151","2","3"]},{"stopID":"50","name":"N HOTEL ST + KEKAULIKE ST","latitude":21.312891,"longitude":-157.863177,"routeShortNames":["1","13","2","3"]},{"stopID":"52","name":"N KING ST + N BERETANIA ST","latitude":21.315949,"longitude":-157.8642,"routeShortNames":["1","13","151","2","3"]},{"stopID":"53","name":"LILIHA ST + N KING ST","latitude":21.318574,"longitude":-157.863959,"routeShortNames":["13","151","2","3","53","54","81","83","84","84A","90","91","91A","92","93","94","95","96","96A","97","98","98A"]},{"stopID":"54","name":"LILIHA ST + VINEYARD BL","latitude":21.319713,"longitude":-157.862462,"routeShortNames":["13","151","2"]},{"stopID":"55","name":"LILIHA ST + KAULUWELA PL","latitude":21.320837,"longitude":-157.860957,"routeShortNames":["13","151","2"]},{"stopID":"56","name":"LILIHA ST + SCHOOL ST","latitude":21.321755,"longitude":-157.85976,"routeShortNames":["13","151"]},{"stopID":"57","name":"LILIHA ST + 1657","latitude":21.32283,"longitude":-157.858452,"routeShortNames":["13","151"]},{"stopID":"58","name":"LILIHA ST + KUAKINI ST","latitude":21.323841,"longitude":-157.857127,"routeShortNames":["10","13"]},{"stopID":"59","name":"LILIHA ST + ELENA ST","latitude":21.324815,"longitude":-157.85589,"routeShortNames":["10","13"]},{"stopID":"60","name":"LILIHA ST + BATES ST","latitude":21.325506,"longitude":-157.855023,"routeShortNames":["10","13"]},{"stopID":"61","name":"LILIHA ST + JUDD ST","latitude":21.326695,"longitude":-157.853601,"routeShortNames":["10","13"]},{"stopID":"62","name":"LILIHA ST + BACHELOT ST","latitude":21.327464,"longitude":-157.85302,"routeShortNames":["10","13"]},{"stopID":"63","name":"LILIHA ST + HALAPIA PL","latitude":21.328799,"longitude":-157.851447,"routeShortNames":["10","13"]},{"stopID":"64","name":"LILIHA ST + OPP EKEKELA ST","latitude":21.329717,"longitude":-157.850152,"routeShortNames":["10","13"]},{"stopID":"65","name":"LILIHA ST + WYLLIE ST","latitude":21.33053,"longitude":-157.848973,"routeShortNames":["10","13"]},{"stopID":"66","name":"LILIHA ST + NAMAUU DR","latitude":21.333084,"longitude":-157.847487,"routeShortNames":["13"]},{"stopID":"67","name":"SCHOOL ST + LILIHA ST","latitude":21.321934,"longitude":-157.860141,"routeShortNames":["2","W3"]},{"stopID":"68","name":"SCHOOL ST + ALANEO ST","latitude":21.324643,"longitude":-157.861683,"routeShortNames":["2","2L","W3"]},{"stopID":"69","name":"SCHOOL ST + LANAKILA AVE","latitude":21.326417,"longitude":-157.862699,"routeShortNames":["2","W3"]},{"stopID":"70","name":"SCHOOL ST + 1002","latitude":21.327587,"longitude":-157.863373,"routeShortNames":["2","W3"]},{"stopID":"71","name":"SCHOOL ST + OPP KOKEA ST","latitude":21.329072,"longitude":-157.864236,"routeShortNames":["2","2L","W3"]},{"stopID":"72","name":"SCHOOL ST + POHAKU ST","latitude":21.330105,"longitude":-157.864823,"routeShortNames":["2","W3"]},{"stopID":"73","name":"SCHOOL ST + HOUGHTAILING ST","latitude":21.331811,"longitude":-157.866048,"routeShortNames":["2","W3"]},{"stopID":"74","name":"SCHOOL ST + KAPALAMA ST","latitude":21.334113,"longitude":-157.86787,"routeShortNames":["2","W3"]},{"stopID":"75","name":"SCHOOL ST + LIKELIKE HWY","latitude":21.335748,"longitude":-157.869173,"routeShortNames":["2","2L","W3"]},{"stopID":"76","name":"SCHOOL ST + LEILANI ST","latitude":21.337055,"longitude":-157.87065,"routeShortNames":["2","W3"]},{"stopID":"77","name":"SCHOOL ST + GULICK AVE","latitude":21.337935,"longitude":-157.871895,"routeShortNames":["2","W3"]},{"stopID":"78","name":"SCHOOL ST + KINO ST","latitude":21.339517,"longitude":-157.87329,"routeShortNames":["2","307","W3"]},{"stopID":"79","name":"SCHOOL ST + KAMEHAMEHA IV RD","latitude":21.340924,"longitude":-157.874401,"routeShortNames":["2","2L","307","W3"]},{"stopID":"81","name":"SCHOOL ST + NOTLEY ST","latitude":21.342293,"longitude":-157.87825,"routeShortNames":["2","307","W3"]},{"stopID":"82","name":"MIDDLE ST + ROSE ST","latitude":21.341283,"longitude":-157.879644,"routeShortNames":["2","2L","307","W3"]},{"stopID":"83","name":"MIDDLE ST + OPP KAHAUIKI ST","latitude":21.340575,"longitude":-157.880486,"routeShortNames":["2","307","W3"]},{"stopID":"84","name":"MIDDLE ST + KAUA ST","latitude":21.338429,"longitude":-157.883026,"routeShortNames":["2","307","W3"]},{"stopID":"87","name":"MONSARRAT AVE + KALAKAUA AVE","latitude":21.269673,"longitude":-157.821121,"routeShortNames":["42","8","E","W1","W2","W3"]},{"stopID":"88","name":"MONSARRAT AVE + KAPIOLANI PARK","latitude":21.269523,"longitude":-157.820664,"routeShortNames":["42","8","E"]},{"stopID":"89","name":"KAPAHULU AVE + CAMPBELL AVE","latitude":21.277968,"longitude":-157.81395,"routeShortNames":["13","14","2","2L","W1","W2","W3"]},{"stopID":"90","name":"CAMPBELL AVE + CASTLE ST","latitude":21.276742,"longitude":-157.813171,"routeShortNames":["2","2L"]},{"stopID":"91","name":"CAMPBELL AVE + CATHERINE ST","latitude":21.275616,"longitude":-157.812838,"routeShortNames":["2","2L"]},{"stopID":"92","name":"CAMPBELL AVE + ESTHER ST","latitude":21.274305,"longitude":-157.812442,"routeShortNames":["2","2L"]},{"stopID":"93","name":"CAMPBELL AVE + GEORGE ST","latitude":21.27305,"longitude":-157.812069,"routeShortNames":["2","2L"]},{"stopID":"94","name":"CAMPBELL AVE + HINANO ST","latitude":21.271712,"longitude":-157.811707,"routeShortNames":["2","2L"]},{"stopID":"95","name":"CAMPBELL AVE + MONSARRAT AVE","latitude":21.269812,"longitude":-157.8114,"routeShortNames":["2","2L"]},{"stopID":"96","name":"MONSARRAT AVE + KANAINA ST","latitude":21.269077,"longitude":-157.813611,"routeShortNames":["200"]},{"stopID":"101","name":"LILIHA ST + KAUAI ST","latitude":21.334493,"longitude":-157.846653,"routeShortNames":["13"]},{"stopID":"102","name":"LILIHA ST + 2639","latitude":21.33498,"longitude":-157.845956,"routeShortNames":["13"]},{"stopID":"103","name":"LILIHA ST + HAWAII ST","latitude":21.335435,"longitude":-157.845302,"routeShortNames":["13"]},{"stopID":"104","name":"HAWAII ST + PUUNUI AVE","latitude":21.336365,"longitude":-157.84573,"routeShortNames":["13"]},{"stopID":"105","name":"ROOKE AVE + HAWAII ST","latitude":21.336272,"longitude":-157.846651,"routeShortNames":["13"]},{"stopID":"106","name":"ROOKE AVE + KAUAI ST","latitude":21.335518,"longitude":-157.847728,"routeShortNames":["13"]},{"stopID":"107","name":"ROOKE AVE + MAUI ST","latitude":21.334424,"longitude":-157.849183,"routeShortNames":["13"]},{"stopID":"108","name":"ROOKE AVE + WYLLIE ST","latitude":21.33334,"longitude":-157.850637,"routeShortNames":["13"]},{"stopID":"109","name":"WYLLIE ST + OPP HUENE ST","latitude":21.332255,"longitude":-157.849926,"routeShortNames":["10","13"]},{"stopID":"110","name":"WYLLIE ST + LILIHA ST","latitude":21.330929,"longitude":-157.848819,"routeShortNames":["10","13"]},{"stopID":"111","name":"LILIHA ST + ANALU ST","latitude":21.330402,"longitude":-157.849306,"routeShortNames":["10","13","4"]},{"stopID":"112","name":"LILIHA ST + EKEKELA ST","latitude":21.329704,"longitude":-157.8503,"routeShortNames":["10","13","4"]},{"stopID":"113","name":"LILIHA ST + OPP HALAPIA PL","latitude":21.328622,"longitude":-157.851829,"routeShortNames":["10","13","4"]},{"stopID":"114","name":"LILIHA ST + HANANA PL","latitude":21.327239,"longitude":-157.853286,"routeShortNames":["10","13","4"]},{"stopID":"115","name":"LILIHA ST + JUDD ST","latitude":21.326276,"longitude":-157.854186,"routeShortNames":["13"]},{"stopID":"116","name":"LILIHA ST + PANUI ST","latitude":21.325382,"longitude":-157.855292,"routeShortNames":["13"]},{"stopID":"117","name":"LILIHA ST + KUNAWAI LN","latitude":21.32477,"longitude":-157.856067,"routeShortNames":["13"]},{"stopID":"118","name":"LILIHA ST + KUAKINI ST","latitude":21.323861,"longitude":-157.857226,"routeShortNames":["13"]},{"stopID":"119","name":"LILIHA ST + KELLETT LN","latitude":21.323097,"longitude":-157.858244,"routeShortNames":["13"]},{"stopID":"120","name":"LILIHA ST + HOLOKAHANA LN","latitude":21.322221,"longitude":-157.859323,"routeShortNames":["13"]},{"stopID":"121","name":"LILIHA ST + SCHOOL ST","latitude":21.32112,"longitude":-157.860711,"routeShortNames":["13","2"]},{"stopID":"122","name":"LILIHA ST + VINEYARD BL","latitude":21.320249,"longitude":-157.861872,"routeShortNames":["13","2"]},{"stopID":"123","name":"LILIHA ST + N KING ST","latitude":21.318772,"longitude":-157.863827,"routeShortNames":["13","2","3","53","54","81","83","84","84A","90","91","91A","92","93","94","95","96","96A","97","98","98A"]},{"stopID":"124","name":"N KING ST + N BERETANIA ST","latitude":21.316816,"longitude":-157.864327,"routeShortNames":["1","13","1L","2","2L","3","A LINE"]},{"stopID":"126","name":"N HOTEL ST + MAUNAKEA ST","latitude":21.312312,"longitude":-157.862868,"routeShortNames":["1","13","2","3"]},{"stopID":"127","name":"S HOTEL ST + BETHEL ST","latitude":21.310586,"longitude":-157.86167,"routeShortNames":["1","13","2","3"]},{"stopID":"128","name":"S HOTEL ST + BISHOP ST","latitude":21.309428,"longitude":-157.860534,"routeShortNames":["1","13","2","3"]},{"stopID":"130","name":"S HOTEL ST + RICHARDS ST","latitude":21.308307,"longitude":-157.858888,"routeShortNames":["1","13","2","3"]},{"stopID":"131","name":"S KING ST + PUNCHBOWL ST","latitude":21.305103,"longitude":-157.858239,"routeShortNames":["1","13","1L","2","2L","3","4","40","42","51","52","53","54","81","83","84","84A","90","91","91A","92","93","94","95","96","96A","97","98","98A","C","E"]},{"stopID":"132","name":"S KING ST + SOUTH ST","latitude":21.303626,"longitude":-157.85525,"routeShortNames":["1","2"]},{"stopID":"133","name":"S KING ST + COOKE ST","latitude":21.303136,"longitude":-157.853498,"routeShortNames":["1","1L","2","2L"]},{"stopID":"135","name":"S KING ST + WARD AVE","latitude":21.301652,"longitude":-157.849339,"routeShortNames":["1","2"]},{"stopID":"137","name":"S KING ST + PENSACOLA ST","latitude":21.300443,"longitude":-157.845924,"routeShortNames":["1","1L","2","2L"]},{"stopID":"138","name":"S KING ST + PIIKOI ST","latitude":21.299856,"longitude":-157.844223,"routeShortNames":["1","2"]},{"stopID":"139","name":"S KING ST + CEDAR ST","latitude":21.299045,"longitude":-157.841921,"routeShortNames":["1","2"]},{"stopID":"140","name":"S KING ST + KEEAUMOKU ST","latitude":21.298364,"longitude":-157.839979,"routeShortNames":["1","2"]},{"stopID":"141","name":"S KING ST + KAHEKA ST","latitude":21.297695,"longitude":-157.838136,"routeShortNames":["1","2"]},{"stopID":"142","name":"KALAKAUA AVE + S KING ST","latitude":21.296535,"longitude":-157.837055,"routeShortNames":["2","2L"]},{"stopID":"143","name":"KALAKAUA AVE + OPP PHILIP ST","latitude":21.295426,"longitude":-157.837045,"routeShortNames":["2"]},{"stopID":"144","name":"KALAKAUA AVE + MAKALOA ST","latitude":21.292954,"longitude":-157.836873,"routeShortNames":["2"]},{"stopID":"145","name":"KALAKAUA AVE + KAPIOLANI BL","latitude":21.290701,"longitude":-157.835856,"routeShortNames":["2"]},{"stopID":"147","name":"KALAKAUA AVE + ENA RD","latitude":21.28728,"longitude":-157.834044,"routeShortNames":["13","2","4","8"]},{"stopID":"148","name":"KUHIO AVE + OPP NAMAHANA ST","latitude":21.283762,"longitude":-157.831147,"routeShortNames":["13","2","8"]},{"stopID":"150","name":"KUHIO AVE + LEWERS ST","latitude":21.281497,"longitude":-157.828578,"routeShortNames":["13","2","2L","42","8","W1","W2","W3"]},{"stopID":"151","name":"KUHIO AVE + SEASIDE AVE","latitude":21.279841,"longitude":-157.826671,"routeShortNames":["13","2","42","8","W1","W2","W3"]},{"stopID":"152","name":"KUHIO AVE + KAIULANI AVE","latitude":21.277465,"longitude":-157.824278,"routeShortNames":["13","2","2L","42","8","W1","W2","W3"]},{"stopID":"153","name":"KUHIO AVE + LILIUOKALANI AVE","latitude":21.275579,"longitude":-157.822552,"routeShortNames":["13","2","42","8","W1","W2","W3"]},{"stopID":"154","name":"KUHIO AVE + PAOAKALANI AVE","latitude":21.274013,"longitude":-157.82142,"routeShortNames":["13","2","2L","42","8","W1","W2","W3"]},{"stopID":"156","name":"KAPAHULU AVE + KALAKAUA AVE","latitude":21.27164,"longitude":-157.822429,"routeShortNames":["14","2","200","42","8","W1","W2","W3"]},{"stopID":"157","name":"KALAKAUA AVE + OPP MONSARRAT AVE","latitude":21.270782,"longitude":-157.822427,"routeShortNames":["14","200"]},{"stopID":"159","name":"KALAKAUA AVE + WAIKIKI AQUARIUM","latitude":21.266299,"longitude":-157.821366,"routeShortNames":["14","200"]},{"stopID":"161","name":"KALAKAUA AVE + ELKS CLUB","latitude":21.261734,"longitude":-157.820312,"routeShortNames":["14","200"]},{"stopID":"162","name":"KALAKAUA AVE + PONI MOI RD","latitude":21.26023,"longitude":-157.819369,"routeShortNames":["14","200"]},{"stopID":"163","name":"KALIHI-PALAMA BUS FACILITY","latitude":21.336199,"longitude":-157.886154,"routeShortNames":["1","1L","2","2L","301","302","32","W3"]},{"stopID":"164","name":"MIDDLE ST + KAUA ST","latitude":21.33869,"longitude":-157.882546,"routeShortNames":["2"]},{"stopID":"165","name":"MIDDLE ST + KAHAUIKI ST","latitude":21.340905,"longitude":-157.879974,"routeShortNames":["2","2L","W3"]},{"stopID":"166","name":"MIDDLE ST + OPP NOTLEY ST","latitude":21.342123,"longitude":-157.87845,"routeShortNames":["2","W3"]},{"stopID":"169","name":"SCHOOL ST + LINAPUNI ST","latitude":21.33982,"longitude":-157.873627,"routeShortNames":["2","307","W3"]},{"stopID":"170","name":"SCHOOL ST + MARTIN ST","latitude":21.338649,"longitude":-157.872685,"routeShortNames":["2","307"]},{"stopID":"171","name":"SCHOOL ST + LEILANI ST","latitude":21.336953,"longitude":-157.870643,"routeShortNames":["2"]},{"stopID":"172","name":"SCHOOL ST + LIKELIKE HWY","latitude":21.335075,"longitude":-157.868723,"routeShortNames":["2","2L","W3"]},{"stopID":"173","name":"SCHOOL ST + KAPALAMA ST","latitude":21.333913,"longitude":-157.867812,"routeShortNames":["2"]},{"stopID":"174","name":"SCHOOL ST + HOUGHTAILING ST","latitude":21.332439,"longitude":-157.86667,"routeShortNames":["2","W3"]},{"stopID":"175","name":"SCHOOL ST + OPP AUPUNI ST","latitude":21.331154,"longitude":-157.865621,"routeShortNames":["2"]},{"stopID":"176","name":"SCHOOL ST + KOKEA ST","latitude":21.32934,"longitude":-157.864457,"routeShortNames":["2","2L"]},{"stopID":"177","name":"SCHOOL ST + 1015","latitude":21.328139,"longitude":-157.863772,"routeShortNames":["2"]},{"stopID":"178","name":"SCHOOL ST + LANAKILA AVE","latitude":21.326976,"longitude":-157.863108,"routeShortNames":["2","W3"]},{"stopID":"179","name":"SCHOOL ST + OLD PALAMA ST","latitude":21.325828,"longitude":-157.862455,"routeShortNames":["2"]},{"stopID":"180","name":"SCHOOL ST + MOMOLIO ST","latitude":21.324157,"longitude":-157.8615,"routeShortNames":["2","2L","W3"]},{"stopID":"181","name":"ALAPAI ST + S KING ST","latitude":21.304125,"longitude":-157.853623,"routeShortNames":["13","2","3","40","42","80","81","82","83","84","84A","85","86","87","88","89","90","91","91A","92","93","94","95","96","96A","97","98","98A","C","E"]},{"stopID":"183","name":"KAPAHULU AVE + PAKI","latitude":21.272956,"longitude":-157.817049,"routeShortNames":["13","2","2L","W1","W2","W3"]},{"stopID":"184","name":"KAPAHULU AVE + LEAHI AVE","latitude":21.274478,"longitude":-157.815944,"routeShortNames":["13","14","2","2L","W1","W2","W3"]},{"stopID":"186","name":"SEA LIFE PARK","latitude":21.313028,"longitude":-157.663117,"routeShortNames":["23","69"]},{"stopID":"187","name":"KALANIANAOLE HWY + HAWAII KAI GOLF COURSE","latitude":21.297009,"longitude":-157.662546,"routeShortNames":["23"]},{"stopID":"192","name":"KALANIANAOLE HWY + KOKO MARINA CTR","latitude":21.277052,"longitude":-157.706052,"routeShortNames":["1","1L","80","PH6"]},{"stopID":"193","name":"KALANIANAOLE HWY + OPP PORTLOCK RD","latitude":21.279191,"longitude":-157.708562,"routeShortNames":["1","1L","80","PH6"]},{"stopID":"195","name":"KALANIANAOLE HWY + HAWAII KAI TOWNE CENTER","latitude":21.282266,"longitude":-157.713402,"routeShortNames":["1","1L","80","PH6"]},{"stopID":"196","name":"KALANIANAOLE HWY + KEAHOLE ST","latitude":21.283027,"longitude":-157.714985,"routeShortNames":["1","1L","80","PH6"]},{"stopID":"197","name":"KALANIANAOLE HWY + HAWAII KAI DR","latitude":21.284461,"longitude":-157.717074,"routeShortNames":["23","82"]},{"stopID":"198","name":"KALANIANAOLE HWY + KAWAIHAE ST","latitude":21.285754,"longitude":-157.719093,"routeShortNames":["23","82"]},{"stopID":"199","name":"KALANIANAOLE HWY + KULIOUOU RD","latitude":21.286164,"longitude":-157.722968,"routeShortNames":["1","1L","23","80","82","PH6"]},{"stopID":"200","name":"KALANIANAOLE HWY + ELELUPE RD","latitude":21.285742,"longitude":-157.724666,"routeShortNames":["1","1L","23","80","82","PH6"]},{"stopID":"201","name":"KALANIANAOLE HWY + OPP PAIKO DR","latitude":21.283065,"longitude":-157.730463,"routeShortNames":["1","1L","23","80","82","PH6"]},{"stopID":"202","name":"KALANIANAOLE HWY + E HALEMAUMAU ST","latitude":21.282163,"longitude":-157.734589,"routeShortNames":["1","1L","23","80","82","PH6"]},{"stopID":"203","name":"KALANIANAOLE HWY + W HALEMAUMAU ST","latitude":21.280932,"longitude":-157.7392,"routeShortNames":["1","1L","23","PH6"]},{"stopID":"204","name":"KALANIANAOLE HWY + HAWAII LOA ST","latitude":21.280511,"longitude":-157.742727,"routeShortNames":["1","1L","23","PH6"]},{"stopID":"205","name":"KALANIANAOLE HWY + PUUIKENA DR","latitude":21.280081,"longitude":-157.744509,"routeShortNames":["1","1L","23","PH6"]},{"stopID":"206","name":"KALANIANAOLE HWY + E HIND DR","latitude":21.278852,"longitude":-157.74936,"routeShortNames":["1","1L","23","PH6"]},{"stopID":"207","name":"KALANIANAOLE HWY + NENUE ST","latitude":21.278391,"longitude":-157.751937,"routeShortNames":["PH6"]},{"stopID":"208","name":"KALANIANAOLE HWY + W HIND DR","latitude":21.278101,"longitude":-157.754417,"routeShortNames":["PH6"]},{"stopID":"209","name":"KALANIANAOLE HWY + OPP WAILUPE CIR","latitude":21.277241,"longitude":-157.758028,"routeShortNames":["1","1L","23"]},{"stopID":"211","name":"KALANIANAOLE HWY + WAA ST","latitude":21.276329,"longitude":-157.763831,"routeShortNames":["1","1L","23"]},{"stopID":"212","name":"KALANIANAOLE HWY + ANALII ST","latitude":21.276245,"longitude":-157.767582,"routeShortNames":["1","1L","23"]},{"stopID":"213","name":"KALANIANAOLE HWY + WAIALAE IKI PARK","latitude":21.276749,"longitude":-157.770371,"routeShortNames":["1","1L","23"]},{"stopID":"214","name":"KALANIANAOLE HWY + LAUKAHI ST","latitude":21.27709,"longitude":-157.772304,"routeShortNames":["1","1L","23"]},{"stopID":"215","name":"KALANIANAOLE HWY + KALANI HIGH SCHOOL","latitude":21.277453,"longitude":-157.77472,"routeShortNames":["1","1L","23"]},{"stopID":"216","name":"KALANIANAOLE HWY + KALANIIKI ST","latitude":21.277628,"longitude":-157.776411,"routeShortNames":["1","1L","23","PH6"]},{"stopID":"217","name":"KALANIANAOLE HWY + AINAKOA AVE","latitude":21.278285,"longitude":-157.781436,"routeShortNames":["1","1L","23","234"]},{"stopID":"218","name":"KILAUEA AVE + WAIALAE AVE","latitude":21.277646,"longitude":-157.784747,"routeShortNames":["14","2","23","234","2L","7"]},{"stopID":"219","name":"KILAUEA AVE + PAHOA AVE","latitude":21.275125,"longitude":-157.785136,"routeShortNames":["14","2","23","234","2L","7"]},{"stopID":"220","name":"KILAUEA AVE + PUEO ST","latitude":21.272964,"longitude":-157.785856,"routeShortNames":["2","2L"]},{"stopID":"222","name":"KILAUEA AVE + HUNAKAI ST","latitude":21.269653,"longitude":-157.788872,"routeShortNames":["2","2L"]},{"stopID":"224","name":"KILAUEA AVE + 22ND AVE","latitude":21.269799,"longitude":-157.793695,"routeShortNames":["2","2L"]},{"stopID":"226","name":"18TH AVE + KILAUEA AVE","latitude":21.270419,"longitude":-157.797539,"routeShortNames":["2","2L","3"]},{"stopID":"227","name":"18TH AVE + OPP IWALANI PL","latitude":21.269535,"longitude":-157.798018,"routeShortNames":["2","2L","3"]},{"stopID":"228","name":"18TH AVE + DIAMOND HEAD RD","latitude":21.268031,"longitude":-157.798953,"routeShortNames":["2","2L","3"]},{"stopID":"229","name":"DIAMOND HEAD RD + 18TH AVE","latitude":21.267988,"longitude":-157.800337,"routeShortNames":["2","2L","3"]},{"stopID":"230","name":"DIAMOND HEAD RD + MAKAPUU AVE","latitude":21.26939,"longitude":-157.802227,"routeShortNames":["2","2L","3"]},{"stopID":"231","name":"MONSARRAT AVE + TROUSSEAU ST","latitude":21.269805,"longitude":-157.808008,"routeShortNames":["2","200","2L"]},{"stopID":"232","name":"MONSARRAT AVE + CAMPBELL AVE","latitude":21.269476,"longitude":-157.811741,"routeShortNames":["200"]},{"stopID":"233","name":"PAU ST + ALA WAI BL","latitude":21.286588,"longitude":-157.831682,"routeShortNames":["4","E"]},{"stopID":"235","name":"MONSARRAT AVE + KANAINA AVE","latitude":21.269006,"longitude":-157.813811,"routeShortNames":["2","200"]},{"stopID":"236","name":"MONSARRAT AVE + CAMPBELL AVE","latitude":21.269482,"longitude":-157.811401,"routeShortNames":["200"]},{"stopID":"237","name":"MONSARRAT AVE + 3251","latitude":21.269678,"longitude":-157.809533,"routeShortNames":["2","200","2L"]},{"stopID":"238","name":"MONSARRAT AVE + OPP TROUSSEAU ST","latitude":21.269728,"longitude":-157.807954,"routeShortNames":["2","200","2L"]},{"stopID":"240","name":"DIAMOND HEAD RD + OPP KAPIOLANI COMMUNITY COLLEGE","latitude":21.268714,"longitude":-157.801611,"routeShortNames":["2","2L"]},{"stopID":"241","name":"DIAMOND HEAD RD + OPP 18TH AVE","latitude":21.267615,"longitude":-157.800017,"routeShortNames":["2","2L"]},{"stopID":"242","name":"18TH AVE + DIAMOND HEAD RD","latitude":21.267971,"longitude":-157.798914,"routeShortNames":["2","2L"]},{"stopID":"244","name":"18TH AVE + KILAUEA AVE","latitude":21.270982,"longitude":-157.797153,"routeShortNames":["2","2L"]},{"stopID":"246","name":"KILAUEA AVE + 22ND AVE","latitude":21.269654,"longitude":-157.793565,"routeShortNames":["2","2L"]},{"stopID":"247","name":"KILAUEA AVE + PUU PANINI AVE","latitude":21.268587,"longitude":-157.791273,"routeShortNames":["2","2L"]},{"stopID":"248","name":"KILAUEA AVE + HUNAKAI ST","latitude":21.269639,"longitude":-157.788622,"routeShortNames":["2","2L"]},{"stopID":"253","name":"KALANIANAOLE HWY + WAIKUI ST","latitude":21.277689,"longitude":-157.779347,"routeShortNames":["1","1L","23","PH6"]},{"stopID":"254","name":"KALANIANAOLE HWY + WAIELI ST","latitude":21.277307,"longitude":-157.775842,"routeShortNames":["1","1L","23"]},{"stopID":"255","name":"KALANIANAOLE HWY + WAIHOLO ST","latitude":21.276796,"longitude":-157.771959,"routeShortNames":["1","1L","23"]},{"stopID":"256","name":"KALANIANAOLE HWY + KAIMOKU PL","latitude":21.27595,"longitude":-157.767308,"routeShortNames":["1","1L","23"]},{"stopID":"257","name":"KALANIANAOLE HWY + OPP WAA ST","latitude":21.276141,"longitude":-157.763455,"routeShortNames":["1","1L","23"]},{"stopID":"259","name":"KALANIANAOLE HWY + WAILUPE CIR","latitude":21.276984,"longitude":-157.757937,"routeShortNames":["1","1L","23","80","82","PH6"]},{"stopID":"260","name":"KALANIANAOLE HWY + OPP W HIND DR","latitude":21.277895,"longitude":-157.75407,"routeShortNames":["80","82","PH6"]},{"stopID":"262","name":"KALANIANAOLE HWY + OPP E HIND DR","latitude":21.278673,"longitude":-157.748964,"routeShortNames":["1","1L","23"]},{"stopID":"263","name":"KALANIANAOLE HWY + OPP PUUIKENA DR","latitude":21.280002,"longitude":-157.74396,"routeShortNames":["1","1L","23"]},{"stopID":"264","name":"KALANIANAOLE HWY + OPP W HALEMAUMAU","latitude":21.280728,"longitude":-157.739015,"routeShortNames":["1","1L","23"]},{"stopID":"265","name":"KALANIANAOLE HWY + OPP E HALEMAUMAU","latitude":21.282174,"longitude":-157.733607,"routeShortNames":["1","1L","23","80","82","PH6"]},{"stopID":"266","name":"KALANIANAOLE HWY + PAIKO DR","latitude":21.282828,"longitude":-157.730356,"routeShortNames":["1","1L","23","80","82","PH6"]},{"stopID":"267","name":"KALANIANAOLE HWY + PAEOKI PL","latitude":21.285368,"longitude":-157.725148,"routeShortNames":["1","1L","23","80","82","PH6"]},{"stopID":"268","name":"KALANIANAOLE HWY + KULIOUOU RD","latitude":21.285922,"longitude":-157.722897,"routeShortNames":["1","1L","23","80","82","PH6"]},{"stopID":"269","name":"KALANIANAOLE HWY + OPP KAWAIHAE ST","latitude":21.285798,"longitude":-157.719818,"routeShortNames":["23","82"]},{"stopID":"271","name":"KALANIANAOLE HWY + OPP KEAHOLE ST","latitude":21.282774,"longitude":-157.714934,"routeShortNames":["1","1L","80","PH6"]},{"stopID":"272","name":"KALANIANAOLE HWY + 6999","latitude":21.2803,"longitude":-157.710043,"routeShortNames":["1","1L","80","PH6"]},{"stopID":"273","name":"KALANIANAOLE HWY + PORTLOCK RD","latitude":21.279291,"longitude":-157.70884,"routeShortNames":["1","1L","80","PH6"]},{"stopID":"277","name":"KALANIANAOLE HWY + OPP HAWAII KAI GOLF COURSE","latitude":21.296997,"longitude":-157.662429,"routeShortNames":["23"]},{"stopID":"278","name":"HAWAII KAI DR + KALALEA ST","latitude":21.294697,"longitude":-157.686865,"routeShortNames":["23","82"]},{"stopID":"279","name":"HAWAII KAI DR + AHUKINI ST","latitude":21.293228,"longitude":-157.684646,"routeShortNames":["23","82"]},{"stopID":"280","name":"HAWAII KAI DR + OPP MAUNANANI ST","latitude":21.294049,"longitude":-157.679792,"routeShortNames":["23","82"]},{"stopID":"281","name":"MOKUHANO ST + KEKAA ST","latitude":21.296698,"longitude":-157.6765,"routeShortNames":["23","82"]},{"stopID":"282","name":"MOKUHANO ST + 1105","latitude":21.29799,"longitude":-157.674214,"routeShortNames":["23","82"]},{"stopID":"283","name":"MOKUHANO ST + HONOKAHUA ST","latitude":21.298031,"longitude":-157.670721,"routeShortNames":["23","82"]},{"stopID":"284","name":"HONOKAHUA ST + KEPANIWAI ST","latitude":21.299997,"longitude":-157.670791,"routeShortNames":["23","82"]},{"stopID":"285","name":"HONOKAHUA ST + 1229","latitude":21.301465,"longitude":-157.671066,"routeShortNames":["23","82"]},{"stopID":"286","name":"KAHULUI ST + KEALAHOU ST","latitude":21.302721,"longitude":-157.671743,"routeShortNames":["23","82"]},{"stopID":"287","name":"KEALAHOU ST + MUOLEA PL","latitude":21.300521,"longitude":-157.672955,"routeShortNames":["23","82"]},{"stopID":"288","name":"KEALAHOU ST + MOKUHANO ST","latitude":21.298409,"longitude":-157.673437,"routeShortNames":["23","82"]},{"stopID":"289","name":"KEALAHOU ST + OPP KALOHELANI PL","latitude":21.293393,"longitude":-157.673004,"routeShortNames":["23"]},{"stopID":"290","name":"KEALAHOU ST + HOLOKAI PL","latitude":21.291892,"longitude":-157.671951,"routeShortNames":["23"]},{"stopID":"291","name":"KEALAHOU ST + KUANALU PL","latitude":21.291562,"longitude":-157.669963,"routeShortNames":["23"]},{"stopID":"292","name":"KEALAHOU ST + KIPUKAI PL","latitude":21.292156,"longitude":-157.667322,"routeShortNames":["23"]},{"stopID":"293","name":"KEALAHOU ST + KALANIANAOLE HWY","latitude":21.291153,"longitude":-157.66556,"routeShortNames":["23"]},{"stopID":"294","name":"UNIVERSITY AVE + DATE ST","latitude":21.288479,"longitude":-157.824985,"routeShortNames":["A LINE"]},{"stopID":"296","name":"UNIVERSITY AVE + S KING ST","latitude":21.292204,"longitude":-157.821725,"routeShortNames":["4","6","A LINE"]},{"stopID":"297","name":"UNIVERSITY AVE + DOLE ST","latitude":21.297157,"longitude":-157.82109,"routeShortNames":["13","4","6"]},{"stopID":"298","name":"METCALF ST + UNIVERSITY AVE","latitude":21.29914,"longitude":-157.82136,"routeShortNames":["4"]},{"stopID":"299","name":"METCALF ST + MARQUES ST","latitude":21.299377,"longitude":-157.824308,"routeShortNames":["4"]},{"stopID":"300","name":"WILDER AVE + METCALF ST","latitude":21.299341,"longitude":-157.826902,"routeShortNames":["4"]},{"stopID":"301","name":"WILDER AVE + OPP EVELYN LN","latitude":21.300185,"longitude":-157.82827,"routeShortNames":["4"]},{"stopID":"303","name":"WILDER AVE + OPP ALEXANDER ST","latitude":21.301686,"longitude":-157.830561,"routeShortNames":["4"]},{"stopID":"304","name":"WILDER AVE + PUNAHOU ST","latitude":21.302622,"longitude":-157.831966,"routeShortNames":["4"]},{"stopID":"305","name":"WILDER AVE + MAKIKI ST","latitude":21.303809,"longitude":-157.834584,"routeShortNames":["4"]},{"stopID":"306","name":"WILDER AVE + KEEAUMOKU ST","latitude":21.304587,"longitude":-157.836099,"routeShortNames":["4"]},{"stopID":"307","name":"WILDER AVE + KEWALO ST","latitude":21.305386,"longitude":-157.837628,"routeShortNames":["4"]},{"stopID":"308","name":"WILDER AVE + PIIKOI ST","latitude":21.306578,"longitude":-157.839922,"routeShortNames":["4","8"]},{"stopID":"309","name":"PENSACOLA ST + WILDER AVE","latitude":21.307092,"longitude":-157.841534,"routeShortNames":["8"]},{"stopID":"310","name":"PENSACOLA ST + OPP HASSINGER ST","latitude":21.305648,"longitude":-157.842977,"routeShortNames":["8"]},{"stopID":"311","name":"PENSACOLA ST + LUNALILO ST","latitude":21.304892,"longitude":-157.843748,"routeShortNames":["8"]},{"stopID":"314","name":"LUNALILO ST + WARD AVE","latitude":21.306063,"longitude":-157.848928,"routeShortNames":["122"]},{"stopID":"315","name":"CAPTAIN COOK AVE + ALAPAI ST","latitude":21.306847,"longitude":-157.850153,"routeShortNames":["122"]},{"stopID":"316","name":"MAGELLAN AVE + FREAR ST","latitude":21.308868,"longitude":-157.851337,"routeShortNames":["122"]},{"stopID":"317","name":"MAGELLAN AVE + PELE ST","latitude":21.310519,"longitude":-157.851882,"routeShortNames":["122"]},{"stopID":"318","name":"MAGELLAN AVE + IOLANI AVE","latitude":21.311779,"longitude":-157.852244,"routeShortNames":["122"]},{"stopID":"319","name":"QUEEN EMMA ST + VINEYARD BL","latitude":21.312063,"longitude":-157.854649,"routeShortNames":["122","6"]},{"stopID":"323","name":"PUNCHBOWL ST + STATE CAPITOL","latitude":21.306501,"longitude":-157.856183,"routeShortNames":["4"]},{"stopID":"324","name":"PUNCHBOWL ST + S KING ST","latitude":21.304824,"longitude":-157.858703,"routeShortNames":["4"]},{"stopID":"325","name":"QUEEN ST + PUNCHBOWL ST","latitude":21.304466,"longitude":-157.860014,"routeShortNames":["4","6","7"]},{"stopID":"326","name":"QUEEN ST + MILILANI ST","latitude":21.305276,"longitude":-157.860706,"routeShortNames":["4","6","7"]},{"stopID":"327","name":"QUEEN ST + RICHARDS ST","latitude":21.306485,"longitude":-157.861749,"routeShortNames":["4","6","7"]},{"stopID":"328","name":"QUEEN ST + BISHOP ST","latitude":21.307377,"longitude":-157.862528,"routeShortNames":["4","7"]},{"stopID":"329","name":"QUEEN ST + FORT ST MALL","latitude":21.30813,"longitude":-157.863226,"routeShortNames":["4","7"]},{"stopID":"330","name":"BETHEL ST + S KING ST","latitude":21.310125,"longitude":-157.862229,"routeShortNames":["4"]},{"stopID":"331","name":"BETHEL ST + S HOTEL ST","latitude":21.31062,"longitude":-157.861349,"routeShortNames":["4"]},{"stopID":"332","name":"BETHEL ST + S BERETANIA ST","latitude":21.311427,"longitude":-157.860132,"routeShortNames":["4"]},{"stopID":"333","name":"NUUANU AVE + KUKUI ST","latitude":21.313265,"longitude":-157.85883,"routeShortNames":["4"]},{"stopID":"334","name":"NUUANU AVE + VINEYARD BL","latitude":21.315002,"longitude":-157.857223,"routeShortNames":["4"]},{"stopID":"335","name":"NUUANU AVE + N SCHOOL ST","latitude":21.316827,"longitude":-157.855527,"routeShortNames":["4"]},{"stopID":"336","name":"NUUANU AVE + ILIAHI ST","latitude":21.318087,"longitude":-157.854354,"routeShortNames":["4"]},{"stopID":"337","name":"NUUANU AVE + KUAKINI ST","latitude":21.319077,"longitude":-157.853413,"routeShortNames":["4"]},{"stopID":"338","name":"NUUANU AVE + PAUOA RD","latitude":21.321024,"longitude":-157.851563,"routeShortNames":["10","4"]},{"stopID":"339","name":"NUUANU AVE + JUDD ST","latitude":21.32299,"longitude":-157.849856,"routeShortNames":["4"]},{"stopID":"340","name":"NUUANU AVE + NUUANU CEMETERY","latitude":21.324676,"longitude":-157.848639,"routeShortNames":["4"]},{"stopID":"341","name":"NUUANU AVE + OPP KAWANANAKOA PL","latitude":21.326398,"longitude":-157.847336,"routeShortNames":["4"]},{"stopID":"342","name":"NUUANU AVE + OPP WYLLIE ST","latitude":21.327254,"longitude":-157.846562,"routeShortNames":["4"]},{"stopID":"343","name":"PALI HWY + OPP JACK LN","latitude":21.330538,"longitude":-157.843906,"routeShortNames":["65","66","67"]},{"stopID":"344","name":"PALI HWY + AKAMU PL","latitude":21.331322,"longitude":-157.843256,"routeShortNames":["65","66","67"]},{"stopID":"345","name":"PALI HWY + MOANAWAI PL","latitude":21.332885,"longitude":-157.841986,"routeShortNames":["65","66","67"]},{"stopID":"346","name":"PALI HWY + LAIMI RD","latitude":21.334339,"longitude":-157.840884,"routeShortNames":["65","66","67"]},{"stopID":"347","name":"PALI HWY + QUEEN EMMA SUMMER PALACE","latitude":21.335434,"longitude":-157.84006,"routeShortNames":["65","66","67"]},{"stopID":"348","name":"PALI HWY + PUIWA RD","latitude":21.337202,"longitude":-157.837822,"routeShortNames":["65","66","67"]},{"stopID":"349","name":"PALI HWY + DOWSETT AVE (MAKAI)","latitude":21.337854,"longitude":-157.83703,"routeShortNames":["65","66","67"]},{"stopID":"350","name":"PALI HWY + WOOD ST","latitude":21.339248,"longitude":-157.835429,"routeShortNames":["65","66","67"]},{"stopID":"362","name":"MCCULLY ST + KAPIOLANI BL","latitude":21.288815,"longitude":-157.832545,"routeShortNames":["4"]},{"stopID":"363","name":"KAPIOLANI BL + MCCULLY ST","latitude":21.289168,"longitude":-157.831633,"routeShortNames":["3","7","A LINE"]},{"stopID":"364","name":"KAPIOLANI BL + OPP PAANI ST","latitude":21.288594,"longitude":-157.830132,"routeShortNames":["3","7"]},{"stopID":"365","name":"KAPIOLANI BL + OPP ISENBERG ST","latitude":21.287749,"longitude":-157.827913,"routeShortNames":["3","7"]},{"stopID":"371","name":"PALI HWY + OPP DOWSETT AVE","latitude":21.340698,"longitude":-157.834241,"routeShortNames":["65","66","67"]},{"stopID":"372","name":"PALI HWY + OPP WOOD ST","latitude":21.33914,"longitude":-157.835899,"routeShortNames":["65","66","67"]},{"stopID":"373","name":"PALI HWY + PULELEHUA WAY","latitude":21.338041,"longitude":-157.837162,"routeShortNames":["65","66","67"]},{"stopID":"374","name":"PALI HWY + COUNTRY CLUB RD","latitude":21.336618,"longitude":-157.839131,"routeShortNames":["65","66","67"]},{"stopID":"375","name":"PALI HWY + AHIPUU ST","latitude":21.335527,"longitude":-157.840397,"routeShortNames":["65","66","67"]},{"stopID":"376","name":"PALI HWY + AHI PL","latitude":21.334119,"longitude":-157.841416,"routeShortNames":["65","66","67"]},{"stopID":"377","name":"PALI HWY + MOANAWAI PL","latitude":21.332838,"longitude":-157.842393,"routeShortNames":["65","66","67"]},{"stopID":"378","name":"PALI HWY + JACK LN","latitude":21.331399,"longitude":-157.843567,"routeShortNames":["65","66","67"]},{"stopID":"379","name":"PALI HWY + NIOLOPA PL","latitude":21.329927,"longitude":-157.844816,"routeShortNames":["65","66","67"]},{"stopID":"380","name":"NUUANU AVE + WYLLIE ST","latitude":21.32764,"longitude":-157.846305,"routeShortNames":["10"]},{"stopID":"381","name":"NUUANU AVE + KAWANANAKOA PL","latitude":21.326224,"longitude":-157.847583,"routeShortNames":["10"]},{"stopID":"382","name":"NUUANU AVE + ROBINSON LN","latitude":21.324799,"longitude":-157.848647,"routeShortNames":["10"]},{"stopID":"384","name":"NUUANU AVE + OPP PAUOA RD","latitude":21.321029,"longitude":-157.851664,"routeShortNames":["10","4"]},{"stopID":"385","name":"NUUANU AVE + KUAKINI ST","latitude":21.319601,"longitude":-157.853042,"routeShortNames":["10","4"]},{"stopID":"386","name":"NUUANU AVE + OPP ILIAHI ST","latitude":21.318212,"longitude":-157.854341,"routeShortNames":["4"]},{"stopID":"387","name":"NUUANU AVE + SCHOOL ST","latitude":21.317198,"longitude":-157.855296,"routeShortNames":["4"]},{"stopID":"388","name":"NUUANU AVE + FOSTER GARDENS","latitude":21.315068,"longitude":-157.857267,"routeShortNames":["4"]},{"stopID":"390","name":"NUUANU AVE + KUKUI ST","latitude":21.313331,"longitude":-157.858873,"routeShortNames":["4"]},{"stopID":"391","name":"NUUANU AVE + S BERETANIA ST","latitude":21.312121,"longitude":-157.860234,"routeShortNames":["4"]},{"stopID":"392","name":"NUUANU AVE + PAUAHI ST","latitude":21.311591,"longitude":-157.861213,"routeShortNames":["4"]},{"stopID":"393","name":"S KING ST + BETHEL ST","latitude":21.310054,"longitude":-157.862677,"routeShortNames":["1L","4","40","42","51","52","53","54","7","81","83","84","84A","90","91","91A","92","93","94","95","96","96A","97","98","98A","C"]},{"stopID":"397","name":"WARD AVE + LUNALILO ST","latitude":21.305805,"longitude":-157.848625,"routeShortNames":["123","4"]},{"stopID":"398","name":"GREEN ST + WARD AVE","latitude":21.306632,"longitude":-157.84773,"routeShortNames":["4"]},{"stopID":"399","name":"THURSTON ST + GREEN ST","latitude":21.306479,"longitude":-157.846278,"routeShortNames":["4"]},{"stopID":"400","name":"THURSTON AVE + 1519","latitude":21.306982,"longitude":-157.844398,"routeShortNames":["4"]},{"stopID":"401","name":"THURSTON AVE + 1571","latitude":21.307413,"longitude":-157.842521,"routeShortNames":["4"]},{"stopID":"402","name":"WILDER AVE + PENSACOLA ST","latitude":21.307348,"longitude":-157.841536,"routeShortNames":["4"]},{"stopID":"403","name":"WILDER AVE + PIIKOI ST","latitude":21.306422,"longitude":-157.839787,"routeShortNames":["102","4"]},{"stopID":"404","name":"WILDER AVE + KEWALO ST","latitude":21.305547,"longitude":-157.838102,"routeShortNames":["102","4"]},{"stopID":"405","name":"WILDER AVE + KEEAUMOKU ST","latitude":21.304485,"longitude":-157.836067,"routeShortNames":["4"]},{"stopID":"406","name":"WILDER AVE + MAKIKI ST","latitude":21.303744,"longitude":-157.834622,"routeShortNames":["4"]},{"stopID":"407","name":"WILDER AVE + PUNAHOU ST","latitude":21.302988,"longitude":-157.832837,"routeShortNames":["4"]},{"stopID":"408","name":"WILDER AVE + HALEKULA WAY","latitude":21.302128,"longitude":-157.831364,"routeShortNames":["4"]},{"stopID":"409","name":"WILDER AVE + ALEXANDER ST","latitude":21.30133,"longitude":-157.830154,"routeShortNames":["4"]},{"stopID":"410","name":"WILDER AVE + EVELYN LN","latitude":21.300216,"longitude":-157.828456,"routeShortNames":["4"]},{"stopID":"411","name":"WILDER AVE + METCALF ST","latitude":21.299316,"longitude":-157.827006,"routeShortNames":["4"]},{"stopID":"412","name":"METCALF ST + HOONANEA ST","latitude":21.299243,"longitude":-157.823616,"routeShortNames":["4"]},{"stopID":"413","name":"UNIVERSITY AVE + METCALF ST","latitude":21.298674,"longitude":-157.821231,"routeShortNames":["4","6"]},{"stopID":"414","name":"UNIVERSITY AVE + DOLE ST","latitude":21.296531,"longitude":-157.821292,"routeShortNames":["4","6"]},{"stopID":"415","name":"UNIVERSITY AVE + COYNE ST","latitude":21.293108,"longitude":-157.821408,"routeShortNames":["4","6"]},{"stopID":"416","name":"UNIVERSITY AVE + S KING ST","latitude":21.291731,"longitude":-157.822179,"routeShortNames":["A LINE"]},{"stopID":"418","name":"KAPIOLANI BL + UNIVERSITY AVE","latitude":21.287473,"longitude":-157.825334,"routeShortNames":["3","7"]},{"stopID":"423","name":"MCCULLY ST + KAPIOLANI BL","latitude":21.289861,"longitude":-157.832239,"routeShortNames":["4"]},{"stopID":"424","name":"MCCULLY ST + ALA WAI BL","latitude":21.288784,"longitude":-157.832669,"routeShortNames":["4"]},{"stopID":"425","name":"KONA ST + OPP KONA IKI ST (FS)","latitude":21.292668,"longitude":-157.844123,"routeShortNames":["60","65","67","88A"]},{"stopID":"426","name":"KONA ST + OPP KEEAUMOKU ST (NS)","latitude":21.292165,"longitude":-157.843003,"routeShortNames":["60","65","67","88A"]},{"stopID":"427","name":"MAHUKONA ST + ATKINSON DR","latitude":21.290322,"longitude":-157.840207,"routeShortNames":["6","60","65","67","88A"]},{"stopID":"428","name":"ALA MOANA BL + ALA MOANA CENTER","latitude":21.289919,"longitude":-157.844622,"routeShortNames":["42","6","60","65","67","88A","E"]},{"stopID":"429","name":"PIIKOI ST + ALA MOANA BL","latitude":21.291914,"longitude":-157.847323,"routeShortNames":["60","65","67","88A"]},{"stopID":"431","name":"KAPIOLANI BL + OPP KAMAKEE ST","latitude":21.296442,"longitude":-157.849964,"routeShortNames":["13","3","40","51","52","53","A LINE","C","E"]},{"stopID":"433","name":"KAPIOLANI BL + WARD AVE","latitude":21.298797,"longitude":-157.85252,"routeShortNames":["13","3","40","51","52","53"]},{"stopID":"435","name":"KAPIOLANI BL + COOKE ST","latitude":21.301587,"longitude":-157.854572,"routeShortNames":["123","13","3","40","51","52","53"]},{"stopID":"436","name":"KAPIOLANI BL + SOUTH ST","latitude":21.303298,"longitude":-157.855387,"routeShortNames":["A LINE"]},{"stopID":"437","name":"S BERETANIA ST + BISHOP ST","latitude":21.310404,"longitude":-157.858507,"routeShortNames":["1L","2L","40","42","51","52","53","54","81","83","84","84A","90","91","91A","92","93","94","95","96","96A","97","98","98A","A LINE","C"]},{"stopID":"438","name":"N BERETANIA ST + OPP SMITH ST","latitude":21.312799,"longitude":-157.860645,"routeShortNames":["1L","2L","40","42","51","52","53","54","81","83","84","84A","90","91","91A","92","93","94","95","96","96A","97","98","98A","A LINE","C"]},{"stopID":"439","name":"N BERETANIA ST + OPP RIVER ST","latitude":21.314069,"longitude":-157.861813,"routeShortNames":["1L","2L","40","42","51","52","53","54","81","83","84","84A","90","91","91A","92","93","94","95","96","96A","97","98","98A","C"]},{"stopID":"440","name":"N BERETANIA ST + N KING ST","latitude":21.316416,"longitude":-157.863966,"routeShortNames":["1L","2L","40","42","51","52","53","54","81","83","84","84A","90","91","91A","92","93","94","95","96","96A","97","98","98A","A LINE"]},{"stopID":"441","name":"DILLINGHAM BL + N KING ST","latitude":21.318441,"longitude":-157.865818,"routeShortNames":["40","42","51","52","C"]},{"stopID":"442","name":"DILLINGHAM BL + AKEPO LN","latitude":21.319205,"longitude":-157.868168,"routeShortNames":["40","42","51","52"]},{"stopID":"444","name":"DILLINGHAM BL + KOKEA ST","latitude":21.321734,"longitude":-157.872468,"routeShortNames":["40","42","51","52"]},{"stopID":"446","name":"DILLINGHAM BL + WAIAKAMILO RD","latitude":21.323742,"longitude":-157.875751,"routeShortNames":["40","42","51","52","C"]},{"stopID":"447","name":"DILLINGHAM BL + MCNEILL ST","latitude":21.325548,"longitude":-157.877894,"routeShortNames":["40","42","51","52"]},{"stopID":"448","name":"DILLINGHAM BL + KALIHI ST","latitude":21.326724,"longitude":-157.879245,"routeShortNames":["40","42","51","52","C"]},{"stopID":"449","name":"DILLINGHAM BL + MOKAUEA ST","latitude":21.32824,"longitude":-157.88103,"routeShortNames":["40","42","51","52","61"]},{"stopID":"450","name":"KAMEHAMEHA HWY + PUUHALE RD","latitude":21.329901,"longitude":-157.883024,"routeShortNames":["306","307","40","42","51","52","61","C"]},{"stopID":"451","name":"KAMEHAMEHA HWY + LAUMAKA ST","latitude":21.330803,"longitude":-157.884325,"routeShortNames":["306","307","40","42","51","52","61"]},{"stopID":"452","name":"KAMEHAMEHA HWY + 2305","latitude":21.332134,"longitude":-157.886173,"routeShortNames":["306","307","40","42","51","52","61"]},{"stopID":"453","name":"KAMEHAMEHA HWY + MIDDLE ST","latitude":21.333142,"longitude":-157.888675,"routeShortNames":["306","307","40","42","51","52","61","C"]},{"stopID":"454","name":"FARRINGTON HWY + KAHUALII ST","latitude":21.389421,"longitude":-157.994828,"routeShortNames":["40","42","43","444","81","W1","W2"]},{"stopID":"455","name":"FARRINGTON HWY + PAIWA ST","latitude":21.386542,"longitude":-157.998303,"routeShortNames":["40","42","433","444","W1"]},{"stopID":"456","name":"FARRINGTON HWY + OPP AWAMOKU ST","latitude":21.385086,"longitude":-158.00052,"routeShortNames":["40","42","433","444","W1"]},{"stopID":"459","name":"FARRINGTON HWY + MAKAMAKA PL","latitude":21.383122,"longitude":-158.010155,"routeShortNames":["40","42","444","99","W1"]},{"stopID":"460","name":"FARRINGTON HWY + ANIANI PL","latitude":21.38227,"longitude":-158.01394,"routeShortNames":["40","42","444","99","W1"]},{"stopID":"461","name":"FARRINGTON HWY + PUPUPUHI ST","latitude":21.381665,"longitude":-158.015807,"routeShortNames":["40","42","444","99","W1"]},{"stopID":"462","name":"FARRINGTON HWY + PUPUKAHI ST","latitude":21.380304,"longitude":-158.018785,"routeShortNames":["40","42","444","99","E","W1"]},{"stopID":"463","name":"FARRINGTON HWY + LEOKANE ST","latitude":21.379556,"longitude":-158.020252,"routeShortNames":["40","42","444","99","W1"]},{"stopID":"464","name":"FARRINGTON HWY + LEOKU ST","latitude":21.378278,"longitude":-158.022711,"routeShortNames":["40","42","444","99","E","W1"]},{"stopID":"465","name":"NIMITZ HWY + KAKOI ST","latitude":21.334816,"longitude":-157.895855,"routeShortNames":["306","40","42","51"]},{"stopID":"468","name":"NIMITZ HWY + OPP OHOHIA ST","latitude":21.336358,"longitude":-157.907705,"routeShortNames":["40","42","51"]},{"stopID":"469","name":"NIMITZ HWY + OPP PAIEA ST","latitude":21.337255,"longitude":-157.913922,"routeShortNames":["40","42","51"]},{"stopID":"470","name":"NIMITZ HWY + OPP RODGERS BL","latitude":21.337954,"longitude":-157.918545,"routeShortNames":["40","42","51"]},{"stopID":"471","name":"NIMITZ HWY + OPP AOLELE ST","latitude":21.338594,"longitude":-157.923017,"routeShortNames":["40","42","51"]},{"stopID":"472","name":"NIMITZ HWY + OPP ELLIOTT ST","latitude":21.339325,"longitude":-157.927212,"routeShortNames":["40","42","51"]},{"stopID":"473","name":"NIMITZ HWY + VALKENBURGH ST","latitude":21.340177,"longitude":-157.929304,"routeShortNames":["40","42","51"]},{"stopID":"474","name":"KAMEHAMEHA HWY + CENTER DR","latitude":21.349738,"longitude":-157.934749,"routeShortNames":["331","40","42","51"]},{"stopID":"475","name":"KAMEHAMEHA HWY + RADFORD DR","latitude":21.353604,"longitude":-157.935595,"routeShortNames":["40","42","51"]},{"stopID":"476","name":"KAMEHAMEHA HWY + HALAWA DR","latitude":21.362788,"longitude":-157.937724,"routeShortNames":["40","42","51"]},{"stopID":"477","name":"KAMEHAMEHA HWY + KALALOA ST","latitude":21.366776,"longitude":-157.936415,"routeShortNames":["40","42","51"]},{"stopID":"478","name":"KAMEHAMEHA HWY + KOHOMUA ST","latitude":21.369006,"longitude":-157.935308,"routeShortNames":["40","42","51"]},{"stopID":"479","name":"KAMEHAMEHA HWY + SALT LAKE BL","latitude":21.371648,"longitude":-157.933668,"routeShortNames":["40","42","51"]},{"stopID":"480","name":"KAMEHAMEHA HWY + HONOMANU ST","latitude":21.37965,"longitude":-157.937631,"routeShortNames":["32","40","42","51","53"]},{"stopID":"481","name":"KAMEHAMEHA HWY + PALI MOMI ST","latitude":21.381792,"longitude":-157.942323,"routeShortNames":["32","40","42","51","53","545"]},{"stopID":"482","name":"KAMEHAMEHA HWY + KAONOHI ST","latitude":21.383059,"longitude":-157.945109,"routeShortNames":["32","40","42","51","53","545"]},{"stopID":"484","name":"KAMEHAMEHA HWY + HEKAHA ST","latitude":21.385588,"longitude":-157.950608,"routeShortNames":["40","42","51","53","541","542"]},{"stopID":"485","name":"KAMEHAMEHA HWY + KAAHUMANU ST","latitude":21.386997,"longitude":-157.953739,"routeShortNames":["40","42","51","53","541","542"]},{"stopID":"486","name":"KAMEHAMEHA HWY + HILA PL","latitude":21.387701,"longitude":-157.955292,"routeShortNames":["40","42","51","53"]},{"stopID":"487","name":"KAMEHAMEHA HWY + KULEANA ST","latitude":21.389246,"longitude":-157.958705,"routeShortNames":["40","42","51","53"]},{"stopID":"488","name":"KAMEHAMEHA HWY + H-1 FWY","latitude":21.390997,"longitude":-157.962512,"routeShortNames":["40","42","51","53"]},{"stopID":"489","name":"KAMEHAMEHA HWY + PUU PONI ST","latitude":21.392088,"longitude":-157.964912,"routeShortNames":["40","42","51","53"]},{"stopID":"490","name":"KAMEHAMEHA HWY + PUU MOMI ST","latitude":21.392998,"longitude":-157.967358,"routeShortNames":["40","42","51","53"]},{"stopID":"491","name":"KAMEHAMEHA HWY + WAIMANO HOME RD","latitude":21.394299,"longitude":-157.971092,"routeShortNames":["40","42","51","53","532","533"]},{"stopID":"492","name":"KAMEHAMEHA HWY + ACACIA RD","latitude":21.395579,"longitude":-157.974831,"routeShortNames":["40","42","51","531","532","533","535","88A"]},{"stopID":"493","name":"FARRINGTON HWY + OPP WAIAWA RD","latitude":21.396219,"longitude":-157.981945,"routeShortNames":["40","42","43","51","88A"]},{"stopID":"494","name":"MAKAKILO DR + FARRINGTON HWY","latitude":21.340974,"longitude":-158.076795,"routeShortNames":["40","411","414","PH1"]},{"stopID":"495","name":"FARRINGTON HWY + OPP KAPOUKA PL","latitude":21.338629,"longitude":-158.078239,"routeShortNames":["40","411","414","415","99","PH1"]},{"stopID":"498","name":"KAPOLEI PKWY + KAMOKILA BL","latitude":21.328116,"longitude":-158.088098,"routeShortNames":["40","413","46"]},{"stopID":"499","name":"FARRINGTON HWY + OPP LAALOA ST","latitude":21.341811,"longitude":-158.106729,"routeShortNames":["40","93","C","PH1"]},{"stopID":"500","name":"FARRINGTON HWY + OPP WAIOMEA ST","latitude":21.344035,"longitude":-158.113184,"routeShortNames":["40","93","C","PH1"]},{"stopID":"502","name":"FARRINGTON HWY + OPP KAHE POINT BEACH PARK","latitude":21.353639,"longitude":-158.129563,"routeShortNames":["40","93"]},{"stopID":"503","name":"FARRINGTON HWY + KAHE POWER PLANT","latitude":21.356649,"longitude":-158.129863,"routeShortNames":["40","93"]},{"stopID":"504","name":"FARRINGTON HWY + OPP POHAKUNUI AVE","latitude":21.370403,"longitude":-158.136324,"routeShortNames":["40","93","PH1"]},{"stopID":"505","name":"FARRINGTON HWY + PILIOKAHI AVE","latitude":21.373536,"longitude":-158.138236,"routeShortNames":["40","93","C","PH1"]},{"stopID":"507","name":"FARRINGTON HWY + NANAKULI AVE","latitude":21.37892,"longitude":-158.142642,"routeShortNames":["40","93","C","PH1"]},{"stopID":"508","name":"FARRINGTON HWY + NANAKULI VILLAGE CENTER","latitude":21.381331,"longitude":-158.145239,"routeShortNames":["40","93"]},{"stopID":"509","name":"FARRINGTON HWY + HALEAKALA AVE","latitude":21.383168,"longitude":-158.147233,"routeShortNames":["40","403","93","C","PH1"]},{"stopID":"510","name":"FARRINGTON HWY + HELELUA ST","latitude":21.384751,"longitude":-158.148939,"routeShortNames":["40","403","93"]},{"stopID":"511","name":"FARRINGTON HWY + LUALUALEI NAVAL RD","latitude":21.386741,"longitude":-158.1511,"routeShortNames":["40","403","93","C","PH1"]},{"stopID":"512","name":"FARRINGTON HWY + MAALOA ST","latitude":21.388489,"longitude":-158.152975,"routeShortNames":["40","403","93"]},{"stopID":"513","name":"FARRINGTON HWY + AUYONG HOMESTEAD RD","latitude":21.390012,"longitude":-158.154645,"routeShortNames":["40","403","93"]},{"stopID":"514","name":"FARRINGTON HWY + MOHIHI ST","latitude":21.39145,"longitude":-158.156209,"routeShortNames":["40","403","93","C"]},{"stopID":"515","name":"FARRINGTON HWY + PRINCESS KAHANU AVE","latitude":21.393412,"longitude":-158.158353,"routeShortNames":["40","403","93"]},{"stopID":"516","name":"FARRINGTON HWY + 87-1624","latitude":21.394943,"longitude":-158.160237,"routeShortNames":["40","93","PH1"]},{"stopID":"518","name":"FARRINGTON HWY + HAKIMO RD","latitude":21.396788,"longitude":-158.163554,"routeShortNames":["40","93","C","PH1"]},{"stopID":"519","name":"FARRINGTON HWY + 87-1420","latitude":21.397518,"longitude":-158.165598,"routeShortNames":["40","93"]},{"stopID":"520","name":"FARRINGTON HWY + 87-1440","latitude":21.397949,"longitude":-158.167657,"routeShortNames":["40","93"]},{"stopID":"521","name":"FARRINGTON HWY + 87-1470","latitude":21.39828,"longitude":-158.169945,"routeShortNames":["40","93"]},{"stopID":"522","name":"FARRINGTON HWY + KAUKAMA RD","latitude":21.404498,"longitude":-158.176821,"routeShortNames":["40","93","C","PH1"]},{"stopID":"523","name":"FARRINGTON HWY + MAIPALAOA RD","latitude":21.409987,"longitude":-158.176872,"routeShortNames":["40","93"]},{"stopID":"524","name":"FARRINGTON HWY + MANUNUNU ST","latitude":21.411462,"longitude":-158.176599,"routeShortNames":["40","93"]},{"stopID":"526","name":"FARRINGTON HWY + ST JOHNS RD","latitude":21.415189,"longitude":-158.176771,"routeShortNames":["40","93","C","PH1"]},{"stopID":"527","name":"FARRINGTON HWY + KIMO ST","latitude":21.418281,"longitude":-158.177252,"routeShortNames":["40","93","PH1"]},{"stopID":"528","name":"FARRINGTON HWY + MAIPELA ST","latitude":21.421081,"longitude":-158.177705,"routeShortNames":["40","93","C"]},{"stopID":"530","name":"FARRINGTON HWY + KAUKAMANA ST","latitude":21.423696,"longitude":-158.178137,"routeShortNames":["40","93","PH1"]},{"stopID":"532","name":"FARRINGTON HWY + ALAPAKI ST","latitude":21.426243,"longitude":-158.178564,"routeShortNames":["40","93","PH1"]},{"stopID":"533","name":"FARRINGTON HWY + MAILIILI RD","latitude":21.429661,"longitude":-158.181124,"routeShortNames":["40","403","93","C"]},{"stopID":"534","name":"FARRINGTON HWY + C&C BASE YARD","latitude":21.430915,"longitude":-158.182757,"routeShortNames":["40","403","93"]},{"stopID":"536","name":"FARRINGTON HWY + LEIHOKU ST","latitude":21.436395,"longitude":-158.185077,"routeShortNames":["40","401","93","C"]},{"stopID":"537","name":"FARRINGTON HWY + PUHANO ST","latitude":21.439562,"longitude":-158.186046,"routeShortNames":["40","401","93","C"]},{"stopID":"538","name":"FARRINGTON HWY + WAIANAE VALLEY RD","latitude":21.442191,"longitude":-158.186871,"routeShortNames":["40","93","C","PH1"]},{"stopID":"539","name":"FARRINGTON HWY + OPP BAYVIEW ST","latitude":21.444334,"longitude":-158.187576,"routeShortNames":["40","93"]},{"stopID":"540","name":"FARRINGTON HWY + PLANTATION RD","latitude":21.446406,"longitude":-158.188465,"routeShortNames":["40","93","C"]},{"stopID":"541","name":"FARRINGTON HWY + OLD GOVERNMENT RD","latitude":21.448112,"longitude":-158.189407,"routeShortNames":["40","93"]},{"stopID":"542","name":"FARRINGTON HWY + KAUIOKALANI PL","latitude":21.449807,"longitude":-158.190941,"routeShortNames":["40","93"]},{"stopID":"543","name":"FARRINGTON HWY + WAIANAE INTERMEDIATE SCHOOL","latitude":21.45127,"longitude":-158.192914,"routeShortNames":["40","93","C"]},{"stopID":"544","name":"FARRINGTON HWY + ALA WALUA ST","latitude":21.453301,"longitude":-158.195728,"routeShortNames":["40","93","PH1"]},{"stopID":"545","name":"FARRINGTON HWY + ALA AKAU ST","latitude":21.45473,"longitude":-158.197728,"routeShortNames":["40","93"]},{"stopID":"546","name":"FARRINGTON HWY + ALAWA PL","latitude":21.457824,"longitude":-158.202001,"routeShortNames":["40","93","C","PH1"]},{"stopID":"547","name":"FARRINGTON HWY + MAIUU RD","latitude":21.45882,"longitude":-158.203557,"routeShortNames":["40","93"]},{"stopID":"548","name":"FARRINGTON HWY + MAKAHA VALLEY RD","latitude":21.460356,"longitude":-158.206924,"routeShortNames":["40","93","C","PH1"]},{"stopID":"549","name":"FARRINGTON HWY + OPP LAHILAHI ST (EAST)","latitude":21.461801,"longitude":-158.210013,"routeShortNames":["40","93","C"]},{"stopID":"551","name":"FARRINGTON HWY + JADE ST","latitude":21.464215,"longitude":-158.212924,"routeShortNames":["40","93","C","PH1"]},{"stopID":"552","name":"FARRINGTON HWY + NALU NANI CT","latitude":21.466625,"longitude":-158.214206,"routeShortNames":["40","93","C"]},{"stopID":"553","name":"FARRINGTON HWY + OPP MOUA ST","latitude":21.468823,"longitude":-158.21538,"routeShortNames":["40","93","C","PH1"]},{"stopID":"554","name":"FARRINGTON HWY + KIAPA PL","latitude":21.470651,"longitude":-158.216353,"routeShortNames":["40","93","C"]},{"stopID":"555","name":"FARRINGTON HWY + WATER ST","latitude":21.471862,"longitude":-158.216989,"routeShortNames":["40","93","C","PH1"]},{"stopID":"558","name":"FARRINGTON HWY + OPP MAKAHA SHORES","latitude":21.479194,"longitude":-158.223659,"routeShortNames":["40","93","C","PH1"]},{"stopID":"559","name":"LAWAIA ST + MAKAU ST","latitude":21.48208,"longitude":-158.228463,"routeShortNames":["40","93","C","PH1"]},{"stopID":"560","name":"MAKAU ST + OPP HOLT ST","latitude":21.480344,"longitude":-158.2278,"routeShortNames":["40","93","C","PH1"]},{"stopID":"561","name":"MAKAU ST + 84-245","latitude":21.479512,"longitude":-158.227396,"routeShortNames":["40","93","C","PH1"]},{"stopID":"562","name":"MAKAU ST + FARRINGTON HWY","latitude":21.479562,"longitude":-158.22481,"routeShortNames":["40","93","C","PH1"]},{"stopID":"563","name":"FARRINGTON HWY + MAKAHA SHORES","latitude":21.47914,"longitude":-158.22369,"routeShortNames":["40","93","C","PH1"]},{"stopID":"567","name":"HUIPU DR + ALA MAHIKU ST","latitude":21.481034,"longitude":-158.201514,"routeShortNames":["40","93"]},{"stopID":"569","name":"MAKAHA VALLEY RD + FARRINGTON HWY","latitude":21.460377,"longitude":-158.206628,"routeShortNames":["40","93"]},{"stopID":"570","name":"MAKAHA VALLEY RD + KAULAILI RD","latitude":21.4624,"longitude":-158.204424,"routeShortNames":["40","93"]},{"stopID":"571","name":"MAKAHA VALLEY RD + KAULAWAHA RD","latitude":21.46515,"longitude":-158.202087,"routeShortNames":["40","93"]},{"stopID":"572","name":"MAKAHA VALLEY RD + NOHOLIO RD","latitude":21.466758,"longitude":-158.200806,"routeShortNames":["40","93"]},{"stopID":"573","name":"ALA HOLO LP + OPP MAKAHA GOLF CLUB","latitude":21.475778,"longitude":-158.199525,"routeShortNames":["40","93"]},{"stopID":"574","name":"HUIPU DR + MAUNAOLU ST","latitude":21.47759,"longitude":-158.19829,"routeShortNames":["40","93"]},{"stopID":"575","name":"HUIPU DR + OPP ALA MAHIKU ST","latitude":21.48108,"longitude":-158.201451,"routeShortNames":["40","93"]},{"stopID":"576","name":"HUIPU DR + KILI DR","latitude":21.482446,"longitude":-158.202366,"routeShortNames":["40","93"]},{"stopID":"578","name":"FARRINGTON HWY + MAKAHA BEACH PARK","latitude":21.476519,"longitude":-158.2196,"routeShortNames":["40","93","C","PH1"]},{"stopID":"579","name":"KAMEHAMEHA HWY + OPP MIDDLE ST","latitude":21.332285,"longitude":-157.887105,"routeShortNames":["307","40","42","51","52","61","C"]},{"stopID":"580","name":"KAMEHAMEHA HWY + OPP LAUMAKA ST","latitude":21.330692,"longitude":-157.884297,"routeShortNames":["307","40","42","51","52","61"]},{"stopID":"581","name":"DILLINGHAM BL + PUUHALE RD","latitude":21.329529,"longitude":-157.882675,"routeShortNames":["307","40","42","51","52","61","C"]},{"stopID":"582","name":"DILLINGHAM BL + MOKAUEA ST","latitude":21.328079,"longitude":-157.880957,"routeShortNames":["40","42","51","52","61"]},{"stopID":"583","name":"DILLINGHAM BL + KALIHI ST","latitude":21.326717,"longitude":-157.879354,"routeShortNames":["40","42","51","52","C"]},{"stopID":"584","name":"DILLINGHAM BL + MCNEILL ST","latitude":21.32567,"longitude":-157.878156,"routeShortNames":["40","42","51","52"]},{"stopID":"585","name":"DILLINGHAM BL + WAIAKAMILO RD","latitude":21.324089,"longitude":-157.876292,"routeShortNames":["40","42","51","52","C"]},{"stopID":"586","name":"DILLINGHAM BL + KOHOU ST","latitude":21.322253,"longitude":-157.873549,"routeShortNames":["40","42","51","52"]},{"stopID":"587","name":"DILLINGHAM BL + KOKEA ST","latitude":21.32174,"longitude":-157.872627,"routeShortNames":["40","42","51","52"]},{"stopID":"589","name":"DILLINGHAM BL + OPP AKEPO LN","latitude":21.319327,"longitude":-157.868597,"routeShortNames":["40","42","51","52"]},{"stopID":"590","name":"DILLINGHAM BL + N KING ST","latitude":21.318368,"longitude":-157.865685,"routeShortNames":["40","42","51","52","C"]},{"stopID":"591","name":"N KING ST + N BERETANIA ST","latitude":21.315792,"longitude":-157.86428,"routeShortNames":["40","42","51","52","53","54","81","83","84","84A","90","91","91A","92","93","94","95","96","96A","97","98","98A"]},{"stopID":"592","name":"N KING ST + RIVER ST","latitude":21.313323,"longitude":-157.864284,"routeShortNames":["40","42","51","52","53","54","7","81","83","84","84A","90","91","91A","92","93","94","95","96","96A","97","98","98A"]},{"stopID":"595","name":"KAPIOLANI BL + SOUTH ST","latitude":21.30318,"longitude":-157.855424,"routeShortNames":["13","3","40","51","52","53","A LINE","C","E"]},{"stopID":"596","name":"KAPIOLANI BL + COOKE ST","latitude":21.30146,"longitude":-157.854598,"routeShortNames":["13","3","40","51","52","53"]},{"stopID":"598","name":"KAPIOLANI BL + WARD AVE","latitude":21.298663,"longitude":-157.852527,"routeShortNames":["13","3","40","51","52","53"]},{"stopID":"600","name":"KAPIOLANI BL + KAMAKEE ST","latitude":21.296346,"longitude":-157.849973,"routeShortNames":["13","3","40","51","52","53","A LINE","C","E"]},{"stopID":"602","name":"KAPIOLANI BL + PIIKOI ST","latitude":21.294785,"longitude":-157.846457,"routeShortNames":["13","3","8"]},{"stopID":"603","name":"KAPIOLANI BL + KONA IKI ST","latitude":21.293939,"longitude":-157.844546,"routeShortNames":["A LINE"]},{"stopID":"604","name":"FARRINGTON HWY + UPENA ST (WEST)","latitude":21.47423,"longitude":-158.218332,"routeShortNames":["40","93","C"]},{"stopID":"605","name":"FARRINGTON HWY + OPP WATER ST","latitude":21.471846,"longitude":-158.217069,"routeShortNames":["40","93","C","PH1"]},{"stopID":"606","name":"FARRINGTON HWY + UPENA ST (EAST)","latitude":21.470571,"longitude":-158.216398,"routeShortNames":["40","93","C"]},{"stopID":"607","name":"FARRINGTON HWY + MOUA ST (WEST)","latitude":21.468733,"longitude":-158.215422,"routeShortNames":["40","93","C","PH1"]},{"stopID":"608","name":"FARRINGTON HWY + MOUA ST (EAST)","latitude":21.466503,"longitude":-158.214258,"routeShortNames":["40","93","C"]},{"stopID":"609","name":"FARRINGTON HWY + OPP JADE ST","latitude":21.464181,"longitude":-158.213013,"routeShortNames":["40","93","C","PH1"]},{"stopID":"611","name":"FARRINGTON HWY + LAHILAHI ST (EAST)","latitude":21.461727,"longitude":-158.210033,"routeShortNames":["40","93","C"]},{"stopID":"612","name":"FARRINGTON HWY + OPP MAKAHA VALLEY RD","latitude":21.460265,"longitude":-158.206903,"routeShortNames":["40","93","C","PH1"]},{"stopID":"613","name":"FARRINGTON HWY + OPP MAIUU RD","latitude":21.458495,"longitude":-158.203124,"routeShortNames":["40","93"]},{"stopID":"614","name":"FARRINGTON HWY + OPP ALAWA PL","latitude":21.457359,"longitude":-158.201488,"routeShortNames":["40","93","C","PH1"]},{"stopID":"615","name":"FARRINGTON HWY + OPP KAULAWAHA RD","latitude":21.455214,"longitude":-158.198535,"routeShortNames":["40","93","C"]},{"stopID":"616","name":"FARRINGTON HWY + OPP ALA WALUA ST","latitude":21.453058,"longitude":-158.195517,"routeShortNames":["40","93","PH1"]},{"stopID":"617","name":"FARRINGTON HWY + OPP WAIANAE INTERMEDIATE SCHOOL","latitude":21.451207,"longitude":-158.192955,"routeShortNames":["40","93","C"]},{"stopID":"618","name":"FARRINGTON HWY + OPP ALA HEMA ST","latitude":21.449347,"longitude":-158.190565,"routeShortNames":["40","93"]},{"stopID":"619","name":"FARRINGTON HWY + KAUPUNI ST","latitude":21.448043,"longitude":-158.189456,"routeShortNames":["40","93"]},{"stopID":"620","name":"FARRINGTON HWY + GUARD ST","latitude":21.44538,"longitude":-158.188081,"routeShortNames":["40","401","93","C"]},{"stopID":"622","name":"FARRINGTON HWY + WAIANAE VALLEY RD","latitude":21.4428,"longitude":-158.18716,"routeShortNames":["40","401","93"]},{"stopID":"623","name":"FARRINGTON HWY + LUALUALEI HOMESTEAD RD","latitude":21.442217,"longitude":-158.187003,"routeShortNames":["40","401","93","C","PH1"]},{"stopID":"624","name":"FARRINGTON HWY + OPP PUHANO ST","latitude":21.439615,"longitude":-158.186169,"routeShortNames":["40","401","402","93","C"]},{"stopID":"625","name":"FARRINGTON HWY + OPP LEIHOKU ST","latitude":21.435669,"longitude":-158.184921,"routeShortNames":["40","401","402","93","C"]},{"stopID":"627","name":"FARRINGTON HWY + OPP C&C BASEYARD","latitude":21.431429,"longitude":-158.183169,"routeShortNames":["40","403","93"]},{"stopID":"628","name":"FARRINGTON HWY + OPP MAILIILI RD","latitude":21.429199,"longitude":-158.180473,"routeShortNames":["40","93","C"]},{"stopID":"629","name":"FARRINGTON HWY + OPP ALAPAKI ST","latitude":21.425987,"longitude":-158.178625,"routeShortNames":["40","93","PH1"]},{"stopID":"631","name":"FARRINGTON HWY + OPP KAUKAMANA ST","latitude":21.423726,"longitude":-158.178223,"routeShortNames":["40","93","PH1"]},{"stopID":"632","name":"FARRINGTON HWY + OPP MALIONA ST","latitude":21.420291,"longitude":-158.177667,"routeShortNames":["40","93","C","PH1"]},{"stopID":"634","name":"FARRINGTON HWY + OPP ST JOHNS RD","latitude":21.415541,"longitude":-158.176904,"routeShortNames":["40","93","C","PH1"]},{"stopID":"635","name":"FARRINGTON HWY + OPP MANUNUNU ST","latitude":21.412571,"longitude":-158.176553,"routeShortNames":["40","93"]},{"stopID":"636","name":"FARRINGTON HWY + ULEHAWA BEACH PARK","latitude":21.410453,"longitude":-158.176865,"routeShortNames":["40","93"]},{"stopID":"637","name":"FARRINGTON HWY + OPP MAIPALAOA RD","latitude":21.408334,"longitude":-158.177276,"routeShortNames":["40","93"]},{"stopID":"638","name":"FARRINGTON HWY + OPP HOOKELE ST","latitude":21.405603,"longitude":-158.177177,"routeShortNames":["40","93","C","PH1"]},{"stopID":"642","name":"FARRINGTON HWY + OPP HAKIMO RD","latitude":21.396408,"longitude":-158.162902,"routeShortNames":["40","93","C"]},{"stopID":"644","name":"FARRINGTON HWY + OPP PRINCESS KAHANU AV","latitude":21.394377,"longitude":-158.159628,"routeShortNames":["40","93","PH1"]},{"stopID":"645","name":"FARRINGTON HWY + OPP MOHIHI ST","latitude":21.391589,"longitude":-158.15647,"routeShortNames":["40","403","93","C"]},{"stopID":"646","name":"FARRINGTON HWY + OPP AUYONG HOMESTEAD RD","latitude":21.389475,"longitude":-158.154167,"routeShortNames":["40","403","93"]},{"stopID":"648","name":"FARRINGTON HWY + OPP NANAIKEOLA ST","latitude":21.385857,"longitude":-158.150241,"routeShortNames":["40","403","93","C","PH1"]},{"stopID":"649","name":"FARRINGTON HWY + OPP HELELUA ST","latitude":21.38454,"longitude":-158.148826,"routeShortNames":["40","403","93"]},{"stopID":"650","name":"FARRINGTON HWY + OPP HALEAKALA AVE","latitude":21.382765,"longitude":-158.146918,"routeShortNames":["40","403","93","C","PH1"]},{"stopID":"651","name":"FARRINGTON HWY + OPP NANAKULI VILLAGE CENTER","latitude":21.38092,"longitude":-158.144926,"routeShortNames":["40","403","93"]},{"stopID":"652","name":"FARRINGTON HWY + OPP NANAKULI AVE","latitude":21.378829,"longitude":-158.142658,"routeShortNames":["40","93","C","PH1"]},{"stopID":"654","name":"FARRINGTON HWY + PILIOKAHI AVE","latitude":21.372656,"longitude":-158.137795,"routeShortNames":["40","93","C","PH1"]},{"stopID":"655","name":"FARRINGTON HWY + POHAKUNUI AVE","latitude":21.370291,"longitude":-158.136345,"routeShortNames":["40","93","PH1"]},{"stopID":"656","name":"FARRINGTON HWY + OPP KAHE POWER PLANT","latitude":21.357286,"longitude":-158.130353,"routeShortNames":["40","93"]},{"stopID":"657","name":"FARRINGTON HWY + KAHE POINT BEACH PARK","latitude":21.353266,"longitude":-158.129823,"routeShortNames":["40","93"]},{"stopID":"659","name":"FARRINGTON HWY + ALIINUI DR","latitude":21.347628,"longitude":-158.126624,"routeShortNames":["40","93","C"]},{"stopID":"660","name":"FARRINGTON HWY + WAIOMEA ST","latitude":21.343928,"longitude":-158.113835,"routeShortNames":["40","93","C","PH1"]},{"stopID":"661","name":"FARRINGTON HWY + LAALOA ST","latitude":21.341602,"longitude":-158.106584,"routeShortNames":["40","93","C","PH1"]},{"stopID":"662","name":"KAPOLEI PKWY + KAMOKILA BL","latitude":21.327845,"longitude":-158.088051,"routeShortNames":["40","413","46"]},{"stopID":"663","name":"KAMOKILA BL + ULUOHIA ST","latitude":21.331875,"longitude":-158.083937,"routeShortNames":["40","41","413","46"]},{"stopID":"665","name":"KAMOKILA BL + OPP NAU PL","latitude":21.334525,"longitude":-158.081398,"routeShortNames":["40","411","414","99"]},{"stopID":"666","name":"FARRINGTON HWY + KAPOWAI PL","latitude":21.337606,"longitude":-158.079239,"routeShortNames":["40","411","414","99","PH1"]},{"stopID":"667","name":"FARRINGTON HWY + KAPOUKA PL","latitude":21.338766,"longitude":-158.077671,"routeShortNames":["40","411","414","99","PH1"]},{"stopID":"668","name":"MAKAKILO DR + FARRINGTON HWY","latitude":21.340726,"longitude":-158.076469,"routeShortNames":["411","414","461","94","PH1"]},{"stopID":"669","name":"FARRINGTON HWY + OPP LEOKU ST","latitude":21.378293,"longitude":-158.022137,"routeShortNames":["40","42","99","E","W1"]},{"stopID":"670","name":"FARRINGTON HWY + PUPUKAHI ST","latitude":21.380441,"longitude":-158.017946,"routeShortNames":["40","42","99","E","W1"]},{"stopID":"671","name":"FARRINGTON HWY + PUPUPUHI ST","latitude":21.381328,"longitude":-158.016008,"routeShortNames":["40","42","99","W1"]},{"stopID":"672","name":"FARRINGTON HWY + OPP ANIANI PL","latitude":21.38246,"longitude":-158.011859,"routeShortNames":["40","42","99","W1"]},{"stopID":"677","name":"FARRINGTON HWY + OPP PAIWA ST","latitude":21.386363,"longitude":-157.998178,"routeShortNames":["40","42","W1"]},{"stopID":"678","name":"FARRINGTON HWY + WAIPIO POINT ACCESS","latitude":21.38937,"longitude":-157.99464,"routeShortNames":["40","42","43","81","W1","W2"]},{"stopID":"679","name":"FARRINGTON HWY + WAIAWA RD","latitude":21.395486,"longitude":-157.98034,"routeShortNames":["40","42"]},{"stopID":"681","name":"KAMEHAMEHA HWY + OPP WAIMANO HOME RD","latitude":21.393602,"longitude":-157.969877,"routeShortNames":["40","42","51","53"]},{"stopID":"682","name":"KAMEHAMEHA HWY + OPP PUU MOMI ST","latitude":21.392783,"longitude":-157.96753,"routeShortNames":["40","42","51","53"]},{"stopID":"683","name":"KAMEHAMEHA HWY + OPP PUU PONI ST","latitude":21.391767,"longitude":-157.964808,"routeShortNames":["40","42","51","53"]},{"stopID":"687","name":"KAMEHAMEHA HWY + KALUAMOI PL","latitude":21.387793,"longitude":-157.956051,"routeShortNames":["40","42","51","53"]},{"stopID":"688","name":"KAMEHAMEHA HWY + OPP KAAHUMANU ST","latitude":21.387095,"longitude":-157.954538,"routeShortNames":["40","42","51","53"]},{"stopID":"689","name":"KAMEHAMEHA HWY + HEKAHA ST","latitude":21.38522,"longitude":-157.950438,"routeShortNames":["40","42","51","53","541","542"]},{"stopID":"692","name":"KAMEHAMEHA HWY + OPP PALI MOMI ST","latitude":21.38112,"longitude":-157.941458,"routeShortNames":["40","42","51","53"]},{"stopID":"693","name":"KAMEHAMEHA HWY + AIEA KAI PL","latitude":21.380206,"longitude":-157.939398,"routeShortNames":["32","40","42","51","53"]},{"stopID":"694","name":"KAMEHAMEHA HWY + OPP HONOMANU ST","latitude":21.37929,"longitude":-157.93742,"routeShortNames":["32","40","42","51","53"]},{"stopID":"695","name":"KAMEHAMEHA HWY + OPP SALT LAKE BL","latitude":21.371667,"longitude":-157.934006,"routeShortNames":["32","40","42","51","551","PH1","PH2","PH3","PH4","PH7"]},{"stopID":"696","name":"KAMEHAMEHA HWY + FORD ISLAND BL","latitude":21.369525,"longitude":-157.935292,"routeShortNames":["40","42","51"]},{"stopID":"697","name":"KAMEHAMEHA HWY + ARIZONA MEMORIAL PL","latitude":21.366863,"longitude":-157.93668,"routeShortNames":["40","42","51"]},{"stopID":"698","name":"KAMEHAMEHA HWY + ARIZONA ST","latitude":21.364256,"longitude":-157.93786,"routeShortNames":["40","42","51"]},{"stopID":"699","name":"KAMEHAMEHA HWY + MAKALAPA RD","latitude":21.351994,"longitude":-157.935488,"routeShortNames":["40","42","51"]},{"stopID":"700","name":"KAMEHAMEHA HWY + CENTER DR","latitude":21.349195,"longitude":-157.934864,"routeShortNames":["40","42","51"]},{"stopID":"701","name":"NIMITZ HWY + VALKENBURGH ST","latitude":21.339784,"longitude":-157.929893,"routeShortNames":["40","42","51"]},{"stopID":"702","name":"NIMITZ HWY + ELLIOTT ST","latitude":21.338527,"longitude":-157.925283,"routeShortNames":["40","42","51"]},{"stopID":"703","name":"NIMITZ HWY + AOLELE ST","latitude":21.33799,"longitude":-157.921509,"routeShortNames":["40","42","51"]},{"stopID":"704","name":"NIMITZ HWY + RODGERS BL","latitude":21.337417,"longitude":-157.917808,"routeShortNames":["40","42","51"]},{"stopID":"705","name":"NIMITZ HWY + PAIEA ST","latitude":21.336852,"longitude":-157.913973,"routeShortNames":["40","42","51"]},{"stopID":"706","name":"NIMITZ HWY + OHOHIA ST NEARSIDE","latitude":21.336365,"longitude":-157.910546,"routeShortNames":["40","42","51"]},{"stopID":"709","name":"NIMITZ HWY + LAGOON DR","latitude":21.334809,"longitude":-157.900346,"routeShortNames":["40","42","51"]},{"stopID":"710","name":"NANAKULI AVE + FARRINGTON HWY","latitude":21.379012,"longitude":-158.141988,"routeShortNames":["40","403"]},{"stopID":"711","name":"NANAKULI AVE + LEPEKA AVE","latitude":21.38046,"longitude":-158.140497,"routeShortNames":["40","403"]},{"stopID":"712","name":"NANAKULI AVE + MANO AVE","latitude":21.381392,"longitude":-158.139471,"routeShortNames":["40","403"]},{"stopID":"713","name":"NANAKULI AVE + KAUWAHI AVE","latitude":21.382308,"longitude":-158.138511,"routeShortNames":["40","403"]},{"stopID":"714","name":"NANAKULI AVE + KAWAO AVE","latitude":21.383251,"longitude":-158.137499,"routeShortNames":["40","403"]},{"stopID":"715","name":"NANAKULI AVE + PILILAAU AVE","latitude":21.384468,"longitude":-158.136207,"routeShortNames":["40","403"]},{"stopID":"716","name":"NANAKULI AVE + ILIMAPAPA PL","latitude":21.3853,"longitude":-158.134914,"routeShortNames":["40","403"]},{"stopID":"717","name":"NANAKULI AVE + OPP NANAKULI HIGH SCHOOL","latitude":21.385604,"longitude":-158.132774,"routeShortNames":["40","403"]},{"stopID":"718","name":"NANAKULI AVE + MAIAPOLUA PL","latitude":21.386285,"longitude":-158.131193,"routeShortNames":["40","403"]},{"stopID":"719","name":"NANAKULI AVE + UALAMAOLI PL","latitude":21.387935,"longitude":-158.129724,"routeShortNames":["40","403"]},{"stopID":"720","name":"NANAKULI AVE + MAIAIHOLENA PL","latitude":21.389898,"longitude":-158.129246,"routeShortNames":["40","403"]},{"stopID":"721","name":"NANAKULI AVE + HALEAKALA AVE","latitude":21.391295,"longitude":-158.129247,"routeShortNames":["40","403"]},{"stopID":"722","name":"HALEAKALA AVE + NANAKULI AVE","latitude":21.391742,"longitude":-158.13033,"routeShortNames":["40","403"]},{"stopID":"723","name":"HALEAKALA AVE + OPP NANAIKALA ST","latitude":21.390868,"longitude":-158.132372,"routeShortNames":["40","403"]},{"stopID":"724","name":"HALEAKALA AVE + MOKIAWE ST","latitude":21.38917,"longitude":-158.135424,"routeShortNames":["40","403"]},{"stopID":"725","name":"HALEAKALA AVE + OPUHE ST","latitude":21.386873,"longitude":-158.137309,"routeShortNames":["40","403"]},{"stopID":"726","name":"HALEAKALA AVE + OPP PILILAAU AVE","latitude":21.38621,"longitude":-158.138955,"routeShortNames":["40","403"]},{"stopID":"727","name":"HALEAKALA AVE + OPP KAUWAHI AVE","latitude":21.38533,"longitude":-158.14138,"routeShortNames":["40","403"]},{"stopID":"728","name":"HALEAKALA AVE + MANO AVE","latitude":21.385323,"longitude":-158.143913,"routeShortNames":["40","403"]},{"stopID":"729","name":"HALEAKALA AVE + FARRINGTON HWY","latitude":21.384459,"longitude":-158.145449,"routeShortNames":["40","403"]},{"stopID":"730","name":"HUIPU DR + OPP MAUNAOLU ST","latitude":21.477294,"longitude":-158.198325,"routeShortNames":["40","93"]},{"stopID":"731","name":"ALA HOLO LP + MAKAHA GOLF CLUB","latitude":21.475756,"longitude":-158.199613,"routeShortNames":["40","93"]},{"stopID":"732","name":"MAKAHA VALLEY RD + NOHOLIO RD","latitude":21.466737,"longitude":-158.200922,"routeShortNames":["40","93"]},{"stopID":"733","name":"MAKAHA VALLEY RD + KAULAWAHA RD","latitude":21.46513,"longitude":-158.202205,"routeShortNames":["40","93"]},{"stopID":"734","name":"MAKAHA VALLEY RD + KAULAILI RD","latitude":21.462163,"longitude":-158.204741,"routeShortNames":["40","93"]},{"stopID":"735","name":"MAKAHA VALLEY RD + FARRINGTON HWY","latitude":21.460344,"longitude":-158.20677,"routeShortNames":["40","93"]},{"stopID":"737","name":"S BERETANIA ST + ETERNAL FLAME","latitude":21.308153,"longitude":-157.856905,"routeShortNames":["80","81","82","83","84","84A","85","86","87","88","89","90","91","91A","92","93","94","95","96","96A","97","98","98A"]},{"stopID":"738","name":"VINEYARD BL + LILIHA ST","latitude":21.32028,"longitude":-157.862286,"routeShortNames":["3","53","54","81","83","84","84A","85","86","88","88A","90","91","91A","92","93","94","95","96","96A","97","98","98A","A LINE","PH6"]},{"stopID":"739","name":"VINEYARD BL + PALAMA ST","latitude":21.32286,"longitude":-157.864183,"routeShortNames":["3","53","54","81","83","84","84A","85","86","88","88A","90","91","91A","92","93","94","95","96","96A","97","98","98A","PH6"]},{"stopID":"740","name":"VINEYARD BL + PALAMA ST","latitude":21.323811,"longitude":-157.865238,"routeShortNames":["3","53","54","81","83","84","84A","90","91","91A","92","93","94","95","96","96A","97","98","98A"]},{"stopID":"741","name":"VINEYARD BL + PUA LN","latitude":21.321964,"longitude":-157.863845,"routeShortNames":["3","53","54","81","83","84","84A","90","91","91A","92","93","94","95","96","96A","97","98","98A"]},{"stopID":"742","name":"VINEYARD BL + LILIHA ST","latitude":21.320504,"longitude":-157.862747,"routeShortNames":["3","53","54","81","83","84","84A","90","91","91A","92","93","94","95","96","96A","97","98","98A","A LINE"]},{"stopID":"743","name":"ALAKEA ST + S KING ST","latitude":21.307916,"longitude":-157.860622,"routeShortNames":["6","60","65","66","67","80","82","85","86","87","88","88A","89","PH6"]},{"stopID":"744","name":"ALAKEA ST + S HOTEL ST","latitude":21.309039,"longitude":-157.859169,"routeShortNames":["6","60","65","66","67","80","82","85","86","87","88","88A","89","PH6"]},{"stopID":"745","name":"QUEEN EMMA ST + S BERETANIA ST","latitude":21.310186,"longitude":-157.857719,"routeShortNames":["6","60","80","82","PH6"]},{"stopID":"746","name":"QUEEN EMMA ST + VINEYARD ST","latitude":21.311129,"longitude":-157.85611,"routeShortNames":["6","60"]},{"stopID":"747","name":"QUEEN EMMA ST + VINEYARD BL","latitude":21.31194,"longitude":-157.854709,"routeShortNames":["6"]},{"stopID":"748","name":"LUSITANA ST + HUALI ST","latitude":21.313513,"longitude":-157.852702,"routeShortNames":["6"]},{"stopID":"750","name":"LUSITANA ST + OPP MILO LN","latitude":21.315448,"longitude":-157.851625,"routeShortNames":["123","6"]},{"stopID":"751","name":"LUSITANA ST + CONCORDIA ST","latitude":21.316387,"longitude":-157.85061,"routeShortNames":["123","6"]},{"stopID":"753","name":"LUSITANA ST + SAN ANTONIO AVE","latitude":21.317476,"longitude":-157.849284,"routeShortNames":["123","6"]},{"stopID":"754","name":"PAUOA RD + LUSITANA ST","latitude":21.319033,"longitude":-157.847784,"routeShortNames":["6"]},{"stopID":"755","name":"PAUOA RD + PUNA LN","latitude":21.318967,"longitude":-157.845387,"routeShortNames":["6"]},{"stopID":"756","name":"PAUOA RD + OPP NAMILIMILI ST","latitude":21.319324,"longitude":-157.843645,"routeShortNames":["6"]},{"stopID":"757","name":"PAUOA RD + OPP LAE ST","latitude":21.319675,"longitude":-157.842167,"routeShortNames":["6"]},{"stopID":"758","name":"PAUOA RD + OPP HIILAWE ST","latitude":21.320264,"longitude":-157.840429,"routeShortNames":["6"]},{"stopID":"759","name":"KANEALII ST + KAPALU ST","latitude":21.321661,"longitude":-157.840778,"routeShortNames":["6"]},{"stopID":"760","name":"KONA ST + OPP KEEAUMOKU ST (FS)","latitude":21.29187,"longitude":-157.842307,"routeShortNames":["102","5","6"]},{"stopID":"761","name":"ALA MOANA BL + ALA MOANA CENTER","latitude":21.289896,"longitude":-157.844534,"routeShortNames":["W LINE"]},{"stopID":"763","name":"ALA MOANA BL + QUEEN ST","latitude":21.292008,"longitude":-157.85095,"routeShortNames":["42","60","65","67","88A"]},{"stopID":"764","name":"ALA MOANA BL + KAMAKEE ST","latitude":21.292717,"longitude":-157.853266,"routeShortNames":["42","60","65","67","88A"]},{"stopID":"765","name":"ALA MOANA BL + WARD VILLAGE","latitude":21.294131,"longitude":-157.855587,"routeShortNames":["W LINE"]},{"stopID":"767","name":"WARD AVE + OPP HALEKAUWILA ST","latitude":21.296761,"longitude":-157.85533,"routeShortNames":["6"]},{"stopID":"768","name":"QUEEN ST + KAMANI ST","latitude":21.298387,"longitude":-157.854942,"routeShortNames":["6","7"]},{"stopID":"769","name":"QUEEN ST + COOKE ST","latitude":21.300123,"longitude":-157.856398,"routeShortNames":["6","7"]},{"stopID":"770","name":"QUEEN ST + EMILY ST","latitude":21.301507,"longitude":-157.857506,"routeShortNames":["6","7"]},{"stopID":"773","name":"E MANOA RD + LOWREY AVE","latitude":21.310569,"longitude":-157.808906,"routeShortNames":["6"]},{"stopID":"774","name":"E MANOA RD + LOI ST","latitude":21.311656,"longitude":-157.807278,"routeShortNames":["6"]},{"stopID":"775","name":"E MANOA RD + KAHALOA DR","latitude":21.313592,"longitude":-157.805221,"routeShortNames":["6"]},{"stopID":"776","name":"E MANOA RD + KAAMALIO DR","latitude":21.314393,"longitude":-157.804725,"routeShortNames":["6"]},{"stopID":"777","name":"E MANOA RD + KOLOMONA PL","latitude":21.315469,"longitude":-157.804082,"routeShortNames":["6"]},{"stopID":"778","name":"E MANOA RD + 3355","latitude":21.316241,"longitude":-157.803246,"routeShortNames":["6"]},{"stopID":"779","name":"E MANOA RD + OPP AKAKA PL","latitude":21.31702,"longitude":-157.801998,"routeShortNames":["6"]},{"stopID":"780","name":"E MANOA RD + ALANI DR","latitude":21.317628,"longitude":-157.800375,"routeShortNames":["6"]},{"stopID":"781","name":"ALANI DR + NANIHALE PL","latitude":21.318401,"longitude":-157.799932,"routeShortNames":["6"]},{"stopID":"782","name":"ALANI DR + 3593","latitude":21.319037,"longitude":-157.799367,"routeShortNames":["6"]},{"stopID":"783","name":"ALANI DR + 3663","latitude":21.320333,"longitude":-157.798875,"routeShortNames":["6"]},{"stopID":"784","name":"WOODLAWN DR + OPP WOODLAWN TERRACE PL","latitude":21.320119,"longitude":-157.79784,"routeShortNames":["6"]},{"stopID":"785","name":"WOODLAWN DR + 3586","latitude":21.319036,"longitude":-157.798071,"routeShortNames":["6"]},{"stopID":"786","name":"WOODLAWN DR + OPP SEAVIEW RISE","latitude":21.316758,"longitude":-157.798341,"routeShortNames":["6"]},{"stopID":"787","name":"WOODLAWN DR + ALANI DR","latitude":21.315232,"longitude":-157.799376,"routeShortNames":["6"]},{"stopID":"788","name":"ALANI DR + 3338","latitude":21.313837,"longitude":-157.799367,"routeShortNames":["6"]},{"stopID":"789","name":"ALANI DR + WAIPUNA RISE","latitude":21.313004,"longitude":-157.799691,"routeShortNames":["6"]},{"stopID":"790","name":"ALANI DR + PUHALA RISE","latitude":21.311324,"longitude":-157.80045,"routeShortNames":["6"]},{"stopID":"791","name":"PUHALA RISE + 3066","latitude":21.311799,"longitude":-157.801525,"routeShortNames":["6"]},{"stopID":"792","name":"WOODLAWN DR + LOWER RD","latitude":21.312787,"longitude":-157.803139,"routeShortNames":["6"]},{"stopID":"793","name":"WOODLAWN DR + KAHALOA DR","latitude":21.312003,"longitude":-157.803708,"routeShortNames":["6"]},{"stopID":"794","name":"KAHALOA DR + KAHIWA PL","latitude":21.312671,"longitude":-157.805015,"routeShortNames":["6"]},{"stopID":"795","name":"E MANOA RD + KAHALOA DR","latitude":21.312781,"longitude":-157.805956,"routeShortNames":["6"]},{"stopID":"797","name":"E MANOA RD + LOWREY AVE","latitude":21.310986,"longitude":-157.808352,"routeShortNames":["6"]},{"stopID":"798","name":"E MANOA RD + 2940","latitude":21.310438,"longitude":-157.809276,"routeShortNames":["6"]},{"stopID":"799","name":"E MANOA RD + HUAPALA ST","latitude":21.309854,"longitude":-157.810319,"routeShortNames":["6"]},{"stopID":"800","name":"E MANOA RD + OPP KEAMA PL","latitude":21.308958,"longitude":-157.811897,"routeShortNames":["6"]},{"stopID":"801","name":"E MANOA RD + OPP KOLOWALU ST","latitude":21.308194,"longitude":-157.813533,"routeShortNames":["6"]},{"stopID":"802","name":"E MANOA RD + OAHU AVE","latitude":21.308014,"longitude":-157.815578,"routeShortNames":["6"]},{"stopID":"803","name":"OAHU AVE + OPP UNIVERSITY AVE","latitude":21.307296,"longitude":-157.817068,"routeShortNames":["6"]},{"stopID":"804","name":"OAHU AVE + ARMSTRONG ST","latitude":21.306742,"longitude":-157.818472,"routeShortNames":["6"]},{"stopID":"805","name":"OAHU AVE + OPP KAALA ST","latitude":21.305345,"longitude":-157.819341,"routeShortNames":["6"]},{"stopID":"806","name":"OAHU AVE + KAMEHAMEHA AVE","latitude":21.303556,"longitude":-157.820414,"routeShortNames":["6"]},{"stopID":"808","name":"MAILE WAY + UNIVERSITY AVE","latitude":21.301841,"longitude":-157.820555,"routeShortNames":["6"]},{"stopID":"809","name":"UNIVERSITY AVE + VANCOUVER DR","latitude":21.301122,"longitude":-157.821101,"routeShortNames":["6"]},{"stopID":"810","name":"S BERETANIA ST + KAIALIU ST","latitude":21.293083,"longitude":-157.823295,"routeShortNames":["1","4","6"]},{"stopID":"811","name":"S BERETANIA ST + ISENBERG ST","latitude":21.29473,"longitude":-157.824636,"routeShortNames":["1","4","6"]},{"stopID":"813","name":"S BERETANIA ST + MCCULLY ST","latitude":21.296429,"longitude":-157.828962,"routeShortNames":["1","6"]},{"stopID":"814","name":"S BERETANIA ST + ARTESIAN ST","latitude":21.297411,"longitude":-157.831628,"routeShortNames":["1","6"]},{"stopID":"816","name":"S BERETANIA ST + PUNAHOU ST","latitude":21.298437,"longitude":-157.834512,"routeShortNames":["1","6"]},{"stopID":"817","name":"KEEAUMOKU ST + YOUNG ST","latitude":21.299407,"longitude":-157.839892,"routeShortNames":["102","5","6"]},{"stopID":"818","name":"KEEAUMOKU ST + S KING ST","latitude":21.298062,"longitude":-157.840462,"routeShortNames":["102","5","6"]},{"stopID":"819","name":"KEEAUMOKU ST + RYCROFT ST","latitude":21.296283,"longitude":-157.841188,"routeShortNames":["102","5","6"]},{"stopID":"820","name":"KEEAUMOKU ST + OPP KANUNU ST","latitude":21.295021,"longitude":-157.841766,"routeShortNames":["102","5","6"]},{"stopID":"821","name":"KEEAUMOKU ST + KAPIOLANI BL","latitude":21.293318,"longitude":-157.842442,"routeShortNames":["102","5","6"]},{"stopID":"822","name":"KANEALII AVE + KOALELE ST","latitude":21.321409,"longitude":-157.841573,"routeShortNames":["6"]},{"stopID":"823","name":"KANEALII AVE + HUANU ST","latitude":21.320968,"longitude":-157.842931,"routeShortNames":["6"]},{"stopID":"824","name":"KANEALII AVE + OPP PAKOHANA ST","latitude":21.320614,"longitude":-157.844405,"routeShortNames":["6"]},{"stopID":"825","name":"KANEALII AVE + STAR RD","latitude":21.320391,"longitude":-157.845825,"routeShortNames":["6"]},{"stopID":"826","name":"KANEALII AVE + OPP KAIA ST","latitude":21.32011,"longitude":-157.847176,"routeShortNames":["6"]},{"stopID":"827","name":"KANEALII AVE + PAUOA RD","latitude":21.319595,"longitude":-157.847928,"routeShortNames":["6"]},{"stopID":"828","name":"LUSITANA ST + OPP SAN ANTONIO AVE","latitude":21.317392,"longitude":-157.84953,"routeShortNames":["123","6"]},{"stopID":"829","name":"LUSITANA ST + KUAKINI ST","latitude":21.316552,"longitude":-157.850524,"routeShortNames":["123","6"]},{"stopID":"830","name":"LUSITANA ST + MILO LN","latitude":21.315536,"longitude":-157.851649,"routeShortNames":["123","6"]},{"stopID":"832","name":"LUSITANA ST + SCHOOL ST","latitude":21.313608,"longitude":-157.852759,"routeShortNames":["6"]},{"stopID":"833","name":"PALI HWY + S BERETANIA ST","latitude":21.311115,"longitude":-157.858551,"routeShortNames":["122","151","6","60","65","66","67","80","82","85","86","87","88","88A","89","PH6"]},{"stopID":"834","name":"BISHOP ST + S HOTEL ST","latitude":21.309713,"longitude":-157.859938,"routeShortNames":["122","151","6","60","65","66","67","80","82","85","86","87","88","88A","89","E","PH6"]},{"stopID":"835","name":"BISHOP ST + S KING ST","latitude":21.308295,"longitude":-157.861895,"routeShortNames":["122","6","60","65","66","67","7","80","82","85","86","87","88","88A","89","PH6"]},{"stopID":"836","name":"QUEEN ST + ALAKEA ST","latitude":21.30722,"longitude":-157.862487,"routeShortNames":["122","6","7","80","82","85","86","87","88","89"]},{"stopID":"837","name":"QUEEN ST + RICHARDS ST","latitude":21.306324,"longitude":-157.861718,"routeShortNames":["122","6","7","80","82","85","86","87","88","89"]},{"stopID":"838","name":"QUEEN ST + OPP MILILANI ST","latitude":21.305161,"longitude":-157.86071,"routeShortNames":["122","6","7","80","82","85","86","87","88","89"]},{"stopID":"839","name":"QUEEN ST + PUNCHBOWL ST","latitude":21.303967,"longitude":-157.859678,"routeShortNames":["6","7","80","82","85","86","87","88","89"]},{"stopID":"840","name":"QUEEN ST + SOUTH ST","latitude":21.302575,"longitude":-157.858463,"routeShortNames":["6","7"]},{"stopID":"841","name":"QUEEN ST + KEAWE ST","latitude":21.301437,"longitude":-157.857549,"routeShortNames":["6","7"]},{"stopID":"842","name":"QUEEN ST + COOKE ST","latitude":21.300404,"longitude":-157.856724,"routeShortNames":["6","7"]},{"stopID":"843","name":"QUEEN ST + KAMANI ST","latitude":21.298317,"longitude":-157.854984,"routeShortNames":["6","7"]},{"stopID":"844","name":"WARD AVE + HALEKAUWILA ST","latitude":21.296805,"longitude":-157.855399,"routeShortNames":["6"]},{"stopID":"845","name":"AUAHI ST + WARD AVE","latitude":21.294596,"longitude":-157.854804,"routeShortNames":["6"]},{"stopID":"846","name":"AUAHI ST + KAMAKEE ST","latitude":21.293232,"longitude":-157.852533,"routeShortNames":["6"]},{"stopID":"847","name":"KONA ST + OPP KONA IKI ST (NS)","latitude":21.293009,"longitude":-157.844926,"routeShortNames":["40","51","52","53","6","7","C"]},{"stopID":"848","name":"MAHUKONA ST + KAPIOLANI BL","latitude":21.291762,"longitude":-157.839869,"routeShortNames":["102","5","6"]},{"stopID":"849","name":"KAHEKA ST + MAKALOA ST","latitude":21.293672,"longitude":-157.839172,"routeShortNames":["102","5","6"]},{"stopID":"850","name":"KAHEKA ST + OPP RYCROFT ST","latitude":21.295692,"longitude":-157.83889,"routeShortNames":["5","6"]},{"stopID":"851","name":"KAHEKA ST + S KING ST","latitude":21.297506,"longitude":-157.83808,"routeShortNames":["5","6"]},{"stopID":"852","name":"S KING ST + PUNAHOU ST","latitude":21.297026,"longitude":-157.836241,"routeShortNames":["1","1L","6"]},{"stopID":"854","name":"S KING ST + HAUOLI ST","latitude":21.295746,"longitude":-157.832653,"routeShortNames":["1","6"]},{"stopID":"856","name":"S KING ST + MCCULLY ST","latitude":21.294719,"longitude":-157.829805,"routeShortNames":["1","4","6"]},{"stopID":"858","name":"S KING ST + MAKAHIKI WAY","latitude":21.293972,"longitude":-157.827699,"routeShortNames":["1","4","6"]},{"stopID":"859","name":"S KING ST + ISENBERG ST","latitude":21.293132,"longitude":-157.825366,"routeShortNames":["1","4","6"]},{"stopID":"860","name":"DOLE ST + LOWER CAMPUS RD","latitude":21.296737,"longitude":-157.819197,"routeShortNames":["6"]},{"stopID":"861","name":"DOLE ST + UH LAW SCHOOL","latitude":21.296676,"longitude":-157.817249,"routeShortNames":["6"]},{"stopID":"862","name":"EAST-WEST RD + DOLE ST","latitude":21.296972,"longitude":-157.815054,"routeShortNames":["6"]},{"stopID":"863","name":"EAST-WEST RD + JEFFERSON HALL","latitude":21.298923,"longitude":-157.814464,"routeShortNames":["6"]},{"stopID":"864","name":"MAILE WAY + EAST-WEST RD","latitude":21.301472,"longitude":-157.815187,"routeShortNames":["6"]},{"stopID":"865","name":"MAILE WAY + UNIVERSITY AVE","latitude":21.301425,"longitude":-157.819933,"routeShortNames":["6"]},{"stopID":"868","name":"OAHU AVE + KAALA ST","latitude":21.30497,"longitude":-157.819494,"routeShortNames":["6"]},{"stopID":"869","name":"OAHU AVE + ARMSTRONG ST","latitude":21.306444,"longitude":-157.818601,"routeShortNames":["6"]},{"stopID":"870","name":"OAHU AVE + UNIVERSITY AVE","latitude":21.3072,"longitude":-157.817188,"routeShortNames":["6"]},{"stopID":"871","name":"OAHU AVE + E MANOA RD","latitude":21.307761,"longitude":-157.81634,"routeShortNames":["6"]},{"stopID":"872","name":"E MANOA RD + KOLOWALU ST","latitude":21.308079,"longitude":-157.813604,"routeShortNames":["6"]},{"stopID":"873","name":"E MANOA RD + KEAMA PL","latitude":21.308855,"longitude":-157.811928,"routeShortNames":["6"]},{"stopID":"874","name":"UNIVERSITY AVE + OPP METCALF ST","latitude":21.299291,"longitude":-157.821057,"routeShortNames":["13","6"]},{"stopID":"876","name":"SARATOGA RD + KALAKAUA AVE","latitude":21.281777,"longitude":-157.831175,"routeShortNames":["42"]},{"stopID":"877","name":"KALIA RD + SARATOGA RD","latitude":21.280406,"longitude":-157.833628,"routeShortNames":["42"]},{"stopID":"878","name":"KALIA RD + MALUHIA ST","latitude":21.2829,"longitude":-157.834986,"routeShortNames":["42"]},{"stopID":"879","name":"ALA MOANA BL + OPP KAHANAMOKU ST","latitude":21.284744,"longitude":-157.836763,"routeShortNames":["W LINE"]},{"stopID":"880","name":"ALA MOANA BL + HOBRON LN","latitude":21.285406,"longitude":-157.83848,"routeShortNames":["42","E"]},{"stopID":"882","name":"ALA MOANA BL + ATKINSON DR","latitude":21.288702,"longitude":-157.840622,"routeShortNames":["42"]},{"stopID":"883","name":"ALA MOANA BL + OPP ATKINSON DR","latitude":21.288729,"longitude":-157.841005,"routeShortNames":["42","E"]},{"stopID":"884","name":"ALA MOANA BL + HOBRON LN","latitude":21.285146,"longitude":-157.838608,"routeShortNames":["42","E","W1","W2","W3"]},{"stopID":"885","name":"ALA MOANA BL + KAHANAMOKU ST","latitude":21.284658,"longitude":-157.838144,"routeShortNames":["W LINE"]},{"stopID":"886","name":"KALIA RD + PAOA PL","latitude":21.283179,"longitude":-157.835354,"routeShortNames":["42","W1","W2","W3"]},{"stopID":"888","name":"KALIA RD + SARATOGA RD","latitude":21.279508,"longitude":-157.833144,"routeShortNames":["42","W1","W2","W3"]},{"stopID":"889","name":"SARATOGA RD + KALAKAUA AVE","latitude":21.281227,"longitude":-157.831361,"routeShortNames":["42","W1","W2","W3"]},{"stopID":"891","name":"ALA MOANA BL + WARD AVE","latitude":21.295131,"longitude":-157.858071,"routeShortNames":["42","60","65","67","88A"]},{"stopID":"892","name":"ALA MOANA BL + KOULA ST","latitude":21.295917,"longitude":-157.859741,"routeShortNames":["42","60","65","67","88A"]},{"stopID":"893","name":"ALA MOANA BL + CORAL ST","latitude":21.297572,"longitude":-157.861726,"routeShortNames":["42","60","65","67","88A"]},{"stopID":"894","name":"ALA MOANA BL + SOUTH ST","latitude":21.300207,"longitude":-157.863051,"routeShortNames":["60","65","67","88A","W LINE"]},{"stopID":"895","name":"ALA MOANA BL + PUNCHBOWL ST","latitude":21.303039,"longitude":-157.863281,"routeShortNames":["60","65","67","88A"]},{"stopID":"896","name":"ALA MOANA BL + RICHARDS ST","latitude":21.305263,"longitude":-157.862603,"routeShortNames":["60","65","67","88A"]},{"stopID":"897","name":"ALAKEA ST + NIMITZ HWY","latitude":21.306487,"longitude":-157.862616,"routeShortNames":["60","65","66","67","88A"]},{"stopID":"899","name":"IWILEI RD + KUWILI ST","latitude":21.315683,"longitude":-157.866083,"routeShortNames":["7"]},{"stopID":"900","name":"IWILEI RD + SUMNER ST","latitude":21.315991,"longitude":-157.868159,"routeShortNames":["7"]},{"stopID":"901","name":"IWILEI RD + PACIFIC ST","latitude":21.316095,"longitude":-157.870852,"routeShortNames":["7"]},{"stopID":"902","name":"PACIFIC ST + IWILEI RD","latitude":21.314991,"longitude":-157.871583,"routeShortNames":["7"]},{"stopID":"904","name":"NIMITZ HWY + ALAKAWA ST","latitude":21.317551,"longitude":-157.875378,"routeShortNames":["7","W LINE"]},{"stopID":"905","name":"NIMITZ HWY + OPP PIER 36","latitude":21.31917,"longitude":-157.876243,"routeShortNames":["7"]},{"stopID":"906","name":"NIMITZ HWY + WAIAKAMILO RD","latitude":21.321927,"longitude":-157.87958,"routeShortNames":["7"]},{"stopID":"907","name":"NIMITZ HWY + OPP LIBBY ST","latitude":21.323286,"longitude":-157.880902,"routeShortNames":["7"]},{"stopID":"908","name":"NIMITZ HWY + KALIHI ST","latitude":21.324525,"longitude":-157.88225,"routeShortNames":["10","7"]},{"stopID":"909","name":"NIMITZ HWY + MOKAUEA ST","latitude":21.326035,"longitude":-157.884016,"routeShortNames":["W LINE"]},{"stopID":"911","name":"NIMITZ HWY + OPP SAND ISLAND ACCESS","latitude":21.328276,"longitude":-157.88626,"routeShortNames":["W LINE"]},